,name,lat,lon,addr:city,addr:housenumber,addr:postcode,addr:street,amenity,email,phone,website,wheelchair,contact:facebook,contact:phone,wikidata,fixme,contact:website,old_name,opening_hours,smoking,source,cuisine,drink:club-mate,recycling:cans,recycling:glass,recycling:paper,addr:country,toilets:wheelchair,name:es,designation,wifi,source:name,old_name_1,description,payment:bitcoin,note,alt_name,wheelchair:description,layer,outdoor_seating,addr:subdistrict,internet_access:fee,internet_access,opening_hours:signed,name:en,craft_beer,shop,food,delivery,payment:american_express,payment:discover_card,payment:mastercard,payment:visa,seating,addr:housename,url,contact:email,brewery,description_1,addr:state,operator,old_name_2,lgbtq,name:zh,wheelchair:description:es,microbrewery,entrance,lgbtq:bears,level,outside_seating,craft,ramp:wheelchair,diet:vegan,diet:vegetarian,name:uk,reservation,takeaway,name:ca,disused:amenity,name:fr,min_age,diet:gluten_free,facebook,capacity,beacon:type,indoormark,amenity_1,addr:unit,payment:cash,payment:credit_cards,start_date,payment:debit_cards,name:de,air_conditioning,opening_hours:covid19
0,Mür Café,40.4256418,-3.7121995,Madrid,2,28015.0,Plaza de Cristino Martos,bar,hola@murcafe.com,+34 91 139 98 09,http://murcafe.es/,,,,,,,,,,,,,,,,,,,,,,,,,,,,,,,,,,,,,,,,,,,,,,,,,,,,,,,,,,,,,,,,,,,,,,,,,,,,,,,,,,,,
1,Cadillac Solitario,40.4874732,-3.699712,,,,,bar,,,,,,,,,,,,,,,,,,,,,,,,,,,,,,,,,,,,,,,,,,,,,,,,,,,,,,,,,,,,,,,,,,,,,,,,,,,,,,,,,,,,,,,
2,Bar Barocco,40.4130638,-3.7129344,,,,,bar,,,,,,,,,,,,,,,,,,,,,,,,,,,,,,,,,,,,,,,,,,,,,,,,,,,,,,,,,,,,,,,,,,,,,,,,,,,,,,,,,,,,,,,
3,Bar,40.4094884,-3.6938073,,,,,bar,,,,,,,,,,,,,,,,,,,,,,,,,,,,,,,,,,,,,,,,,,,,,,,,,,,,,,,,,,,,,,,,,,,,,,,,,,,,,,,,,,,,,,,
4,,40.4116383,-3.6979403,,,,,bar,,,,,,,,,,,,,,,,,,,,,,,,,,,,,,,,,,,,,,,,,,,,,,,,,,,,,,,,,,,,,,,,,,,,,,,,,,,,,,,,,,,,,,,
5,Fever,40.4124453,-3.6961583,,,,,bar,,,,no,,,,,,,,,,,,,,,,,,,,,,,,,,,,,,,,,,,,,,,,,,,,,,,,,,,,,,,,,,,,,,,,,,,,,,,,,,,,,,,,,,,
6,La Hidria,40.4128038,-3.695685,,,,,bar,,,,,,,,,,,,,,,,,,,,,,,,,,,,,,,,,,,,,,,,,,,,,,,,,,,,,,,,,,,,,,,,,,,,,,,,,,,,,,,,,,,,,,,
7,La Esquina,40.4129838,-3.6956873,,,,,bar,,,,,,,,,,,,,,,,,,,,,,,,,,,,,,,,,,,,,,,,,,,,,,,,,,,,,,,,,,,,,,,,,,,,,,,,,,,,,,,,,,,,,,,
8,El Diario,40.413178,-3.6957012000000002,,69,,Calle de las Huertas,bar,,,,,,,,,,,,,,,,,,,,,,,,,,,,,,,,,,,,,,,,,,,,,,,,,,,,,,,,,,,,,,,,,,,,,,,,,,,,,,,,,,,,,,,
9,La Fábrica,40.4136254,-3.6956999,Madrid,2,28014.0,Calle de Jesús,bar,,,,,https://www.facebook.com/pages/Cervecer%C3%ADa-La-F%C3%A1brica/135300993192900,+34 913 69 06 71,,,,,,,,,,,,,,,,,,,,,,,,,,,,,,,,,,,,,,,,,,,,,,,,,,,,,,,,,,,,,,,,,,,,,,,,,,,,,,,,,
10,Los Gatos,40.4135119,-3.6957073,,,,,bar,,,,,,,Q57446751,,,,,,,,,,,,,,,,,,,,,,,,,,,,,,,,,,,,,,,,,,,,,,,,,,,,,,,,,,,,,,,,,,,,,,,,,,,,,,,,
11,La Anchoíta,40.4133633,-3.695701,,,,,bar,,,,,,,,,,,,,,,,,,,,,,,,,,,,,,,,,,,,,,,,,,,,,,,,,,,,,,,,,,,,,,,,,,,,,,,,,,,,,,,,,,,,,,,
12,Taberna de la Daniela,40.4141167,-3.6957942,Madrid,7,28014.0,Plaza de Jesús,bar,,,,,,+34 91 389 62 38,,name,http://www.tabernadeladaniela.com/nuestras-danielas/la-daniela-medinaceli/,,,,,,,,,,,,,,,,,,,,,,,,,,,,,,,,,,,,,,,,,,,,,,,,,,,,,,,,,,,,,,,,,,,,,,,,,,,,,,
13,La Amarilla,40.4154807,-3.7111248999999997,Madrid,74,28013.0,Calle Mayor,bar,,,,no,,,,,,,,,,,,,,,,,,,,,,,,,,,,,,,,,,,,,,,,,,,,,,,,,,,,,,,,,,,,,,,,,,,,,,,,,,,,,,,,,,,
14,Velicia,40.416073,-3.7085285,Madrid,42,28013.0,Calle Mayor,bar,,,,,,,,,,,,,,,,,,,,,,,,,,,,,,,,,,,,,,,,,,,,,,,,,,,,,,,,,,,,,,,,,,,,,,,,,,,,,,,,,,,,,,,
15,Discoteca Olimpia,40.4188918,-3.7086559,Madrid,7,28013.0,Calle de Caños del Peral,bar,,,,,,,,,,,,,,,,,,,,,,,,,,,,,,,,,,,,,,,,,,,,,,,,,,,,,,,,,,,,,,,,,,,,,,,,,,,,,,,,,,,,,,,
16,,40.4191018,-3.7039069,,,,,bar,,,,,,,,,,,,,,,,,,,,,,,,,,,,,,,,,,,,,,,,,,,,,,,,,,,,,,,,,,,,,,,,,,,,,,,,,,,,,,,,,,,,,,,
17,El Buo,40.4231951,-3.6982486,,,,,bar,,,,,,,,,,BAires,,,,,,,,,,,,,,,,,,,,,,,,,,,,,,,,,,,,,,,,,,,,,,,,,,,,,,,,,,,,,,,,,,,,,,,,,,,,,
18,QOF,40.4395443,-3.6426533,,,,,bar,,,,,,,,,,,,,,,,,,,,,,,,,,,,,,,,,,,,,,,,,,,,,,,,,,,,,,,,,,,,,,,,,,,,,,,,,,,,,,,,,,,,,,,
19,Otero,40.4410967,-3.6440189,,,,,bar,,,,,,,,,,,,,,,,,,,,,,,,,,,,,,,,,,,,,,,,,,,,,,,,,,,,,,,,,,,,,,,,,,,,,,,,,,,,,,,,,,,,,,,
20,,40.43777,-3.6394243,,,,,bar,,,,,,,,,,,,,,,,,,,,,,,,,,,,,,,,,,,,,,,,,,,,,,,,,,,,,,,,,,,,,,,,,,,,,,,,,,,,,,,,,,,,,,,
21,Bus,40.4378423,-3.6394847,,,,,bar,,,,,,,,,,,,,,,,,,,,,,,,,,,,,,,,,,,,,,,,,,,,,,,,,,,,,,,,,,,,,,,,,,,,,,,,,,,,,,,,,,,,,,,
22,La Marina,40.4379561,-3.6395911,,,,,bar,,,,,,,,,,,,,,,,,,,,,,,,,,,,,,,,,,,,,,,,,,,,,,,,,,,,,,,,,,,,,,,,,,,,,,,,,,,,,,,,,,,,,,,
23,Altagracia,40.4379692,-3.6401759,,,,,bar,,,,,,,,,,,,,,,,,,,,,,,,,,,,,,,,,,,,,,,,,,,,,,,,,,,,,,,,,,,,,,,,,,,,,,,,,,,,,,,,,,,,,,,
24,Maza,40.5044943,-3.7034424,,,,,bar,,,,,,,,,,,,,,,,,,,,,,,,,,,,,,,,,,,,,,,,,,,,,,,,,,,,,,,,,,,,,,,,,,,,,,,,,,,,,,,,,,,,,,,
25,Ito Ita,40.4677937,-3.7948595,,,,,bar,,,,,,,,,,,,,,,,,,,,,,,,,,,,,,,,,,,,,,,,,,,,,,,,,,,,,,,,,,,,,,,,,,,,,,,,,,,,,,,,,,,,,,,
26,,40.4820954,-3.3955349,,,,,bar,,,,,,,,,,,,,,,,,,,,,,,,,,,,,,,,,,,,,,,,,,,,,,,,,,,,,,,,,,,,,,,,,,,,,,,,,,,,,,,,,,,,,,,
27,Cervecería Sureste,40.3642449,-3.5889170999999997,,,,,bar,,,,,,,,,,,07:00 - 01:00,outside,,,,,,,,,,,,,,,,,,,,,,,,,,,,,,,,,,,,,,,,,,,,,,,,,,,,,,,,,,,,,,,,,,,,,,,,,,,
28,Bar Castilla,40.4497272,-3.4660761,,,,,bar,,,,,,,,,,,,,survey,,,,,,,,,,,,,,,,,,,,,,,,,,,,,,,,,,,,,,,,,,,,,,,,,,,,,,,,,,,,,,,,,,,,,,,,,,
29,El Escondite,40.4493943,-3.4612848,,,,,bar,,,,,,,,,,,,,,,,,,,,,,,,,,,,,,,,,,,,,,,,,,,,,,,,,,,,,,,,,,,,,,,,,,,,,,,,,,,,,,,,,,,,,,,
30,La Industria,40.43288,-3.7028322,,,,,bar,,,,,,,,,,,,,,,,,,,,,,,,,,,,,,,,,,,,,,,,,,,,,,,,,,,,,,,,,,,,,,,,,,,,,,,,,,,,,,,,,,,,,,,
31,El Rosario,40.4035341,-3.690538,Madrid,7,28045.0,Calle del General Lacy,bar,,,,,,,,,,,,,,,,,,,,,,,,,,,,,,,,,,,,,,,,,,,,,,,,,,,,,,,,,,,,,,,,,,,,,,,,,,,,,,,,,,,,,,,
32,La Contemporanea,40.3373823,-3.855731,,,,,bar,,,,,,,,,,,,,,,,,,,,,,,,,,,,,,,,,,,,,,,,,,,,,,,,,,,,,,,,,,,,,,,,,,,,,,,,,,,,,,,,,,,,,,,
33,Egunon,40.4696893,-3.5861034,,,,,bar,,,,,,,,,,,,,,,,,,,,,,,,,,,,,,,,,,,,,,,,,,,,,,,,,,,,,,,,,,,,,,,,,,,,,,,,,,,,,,,,,,,,,,,
34,,40.4697057,-3.5872112,,,,,bar,,,,,,,,,,,,,,,,,,,,,,,,,,,,,,,,,,,,,,,,,,,,,,,,,,,,,,,,,,,,,,,,,,,,,,,,,,,,,,,,,,,,,,,
35,Hippos,40.5852177,-4.1329547,,,,,bar,,+34 918 902 502,,,,,,,,,,,,,,,,,,,,,,,,,,,,,,,,,,,,,,,,,,,,,,,,,,,,,,,,,,,,,,,,,,,,,,,,,,,,,,,,,,,,,
36,,40.5915088,-4.1496623,,,,,bar,,,,,,,,,,,,,,,,,,,,,,,,,,,,,,,,,,,,,,,,,,,,,,,,,,,,,,,,,,,,,,,,,,,,,,,,,,,,,,,,,,,,,,,
37,Bar Manolo,40.5347418,-3.4805908,,,,,bar,,,,,,,,,,,,,,,,,,,,,,,,,,,,,,,,,,,,,,,,,,,,,,,,,,,,,,,,,,,,,,,,,,,,,,,,,,,,,,,,,,,,,,,
38,Bar Miguel,40.5344313,-3.4807791,,,,,bar,,,,,,,,,,,,,,,,,,,,,,,,,,,,,,,,,,,,,,,,,,,,,,,,,,,,,,,,,,,,,,,,,,,,,,,,,,,,,,,,,,,,,,,
39,Rosa 32,40.5338682,-3.4790853,,,,,bar,,,,,,,,,,,,,,,,,,,,,,,,,,,,,,,,,,,,,,,,,,,,,,,,,,,,,,,,,,,,,,,,,,,,,,,,,,,,,,,,,,,,,,,
40,Mi Habana II,40.5337762,-3.4789754,,,,,bar,,,,,,,,,,,,,,,,,,,,,,,,,,,,,,,,,,,,,,,,,,,,,,,,,,,,,,,,,,,,,,,,,,,,,,,,,,,,,,,,,,,,,,,
41,Bar Hawaiano Mauna Loa,40.4143568,-3.7011949,,,,,bar,,,,,,,,,,,,,,hawaiian,,,,,,,,,,,,,,,,,,,,,,,,,,,,,,,,,,,,,,,,,,,,,,,,,,,,,,,,,,,,,,,,,,,,,,,,,
42,Cervecería Rodríguez,40.4251204,-3.714055,,,,,bar,,,,,,,,,,,,,,,,,,,,,,,,,,,,,,,,,,,,,,,,,,,,,,,,,,,,,,,,,,,,,,,,,,,,,,,,,,,,,,,,,,,,,,,
43,Casarrubios,40.4043735,-3.7502912999999998,,,,,bar,,,,,,,,,,,,,,,,,,,,,,,,,,,,,,,,,,,,,,,,,,,,,,,,,,,,,,,,,,,,,,,,,,,,,,,,,,,,,,,,,,,,,,,
44,Los Extremeños,40.4540507,-3.4696088,,,,,bar,,,,,,,,,,,,,,,,,,,,,,,,,,,,,,,,,,,,,,,,,,,,,,,,,,,,,,,,,,,,,,,,,,,,,,,,,,,,,,,,,,,,,,,
45,Los Salaos,40.4533684,-3.4669812,,,,,bar,,,,,,,,,,,,,survey,,,,,,,,,,,,,,,,,,,,,,,,,,,,,,,,,,,,,,,,,,,,,,,,,,,,,,,,,,,,,,,,,,,,,,,,,,
46,El Secreto,40.4500705,-3.4651531,,,,,bar,,,,,,,,,,,Tu off,,survey,,,,,,,,,,,,,,,,,,,,,,,,,,,,,,,,,,,,,,,,,,,,,,,,,,,,,,,,,,,,,,,,,,,,,,,,,,
47,Casa Andalucía,40.4489327,-3.4756366,,,,,bar,,,,,,,,,,,,,,,,,,,,,,,,,,,,,,,,,,,,,,,,,,,,,,,,,,,,,,,,,,,,,,,,,,,,,,,,,,,,,,,,,,,,,,,
48,Bar Cuenca,40.4513073,-3.4724411,,,,,bar,,,,,,,,,,,,,survey,,,,,,,,,,,,,,,,,,,,,,,,,,,,,,,,,,,,,,,,,,,,,,,,,,,,,,,,,,,,,,,,,,,,,,,,,,
49,Tempo II,40.426473,-3.7067156,Madrid,66,28015.0,Calle de San Bernardo,bar,,+34 91 531 37 68,http://www.pubtempo2.com/,,,,,,,,,,,,,,,,,,,,,,,,,,,,,,,,,,,,,,,,,,,,,,,,,,,,,,,,,,,,,,,,,,,,,,,,,,,,,,,,,,,,
50,La Taberna de La Luna,40.7283673,-3.8704916,,,28410.0,Calle Cañada de los Toros,bar,,,,,,,,,,,,,,,,,,,,,,,,,,,,,,,,,,,,,,,,,,,,,,,,,,,,,,,,,,,,,,,,,,,,,,,,,,,,,,,,,,,,,,,
51,Cañada 49,40.727153799999996,-3.8639981,,,,,bar,,,,,,,,,,,,,,,,,,,,,,,,,,,,,,,,,,,,,,,,,,,,,,,,,,,,,,,,,,,,,,,,,,,,,,,,,,,,,,,,,,,,,,,
52,,40.3610741,-4.4041592,,,,,bar,,,,,,,,,,,,,,,,,,,,,,,,,,,,,,,,,,,,,,,,,,,,,,,,,,,,,,,,,,,,,,,,,,,,,,,,,,,,,,,,,,,,,,,
53,Willy,40.3615858,-4.3983702000000005,,,,,bar,,,,,,,,,,,,,,,,,,,,,,,,,,,,,,,,,,,,,,,,,,,,,,,,,,,,,,,,,,,,,,,,,,,,,,,,,,,,,,,,,,,,,,,
54,David-Araceli,40.3632075,-4.3990542,,,,,bar,,,,,,,,,,,,,,,,,,,,,,,,,,,,,,,,,,,,,,,,,,,,,,,,,,,,,,,,,,,,,,,,,,,,,,,,,,,,,,,,,,,,,,,
55,Lillo's,40.3607163,-4.4017045,,,,,bar,,,,,,,,,,,,,,,,,,,,,,,,,,,,,,,,,,,,,,,,,,,,,,,,,,,,,,,,,,,,,,,,,,,,,,,,,,,,,,,,,,,,,,,
56,,40.3612285,-4.4004797,,,,,bar,,,,,,,,,,,,,,,,,,,,,,,,,,,,,,,,,,,,,,,,,,,,,,,,,,,,,,,,,,,,,,,,,,,,,,,,,,,,,,,,,,,,,,,
57,,40.3618444,-4.4002507,,,,,bar,,,,,,,,,,,,,,,,,,,,,,,,,,,,,,,,,,,,,,,,,,,,,,,,,,,,,,,,,,,,,,,,,,,,,,,,,,,,,,,,,,,,,,,
58,Ortiz,40.3610883,-4.4014094,,,,,bar,,,,,,,,,,,,,,,,,,,,,,,,,,,,,,,,,,,,,,,,,,,,,,,,,,,,,,,,,,,,,,,,,,,,,,,,,,,,,,,,,,,,,,,
59,,40.3611271,-4.4008462,,,,,bar,,,,,,,,,,,,,,,,,,,,,,,,,,,,,,,,,,,,,,,,,,,,,,,,,,,,,,,,,,,,,,,,,,,,,,,,,,,,,,,,,,,,,,,
60,La Casa de la Cerveza,40.4301757,-3.7008886,,,,Calle de Luchana,bar,,,,,,,,,,,,,,,,,,,,,,,,,,,,,,,,,,,,,,,,,,,,,,,,,,,,,,,,,,,,,,,,,,,,,,,,,,,,,,,,,,,,,,,
61,cuesta,40.4762852,-3.6402638,,,,,bar,,,,,,,,,,,,,,,,,,,,,,,,,,,,,,,,,,,,,,,,,,,,,,,,,,,,,,,,,,,,,,,,,,,,,,,,,,,,,,,,,,,,,,,
62,Malabar,40.4266041,-3.7037765,Madrid,9,28004.0,Plaza del 2 de Mayo,bar,,,,,,+34 915 311 317,,,,,,,,,served,,,,,,,,,,,,,,,,,,,,,,,,,,,,,,,,,,,,,,,,,,,,,,,,,,,,,,,,,,,,,,,,,,,,,,,,
63,L'Escampier,40.4462747,-3.6670337,,,,,bar,,,,,,,,,,,,,,,,,,,,,,,,,,,,,,,,,,,,,,,,,,,,,,,,,,,,,,,,,,,,,,,,,,,,,,,,,,,,,,,,,,,,,,,
64,El Choko de Soto,40.7534334,-3.786204,,,,,bar,,,,,,,,,,,,,,,,,,,,,,,,,,,,,,,,,,,,,,,,,,,,,,,,,,,,,,,,,,,,,,,,,,,,,,,,,,,,,,,,,,,,,,,
65,La Perla,40.4069709,-3.6135606,,,,,bar,,,,,,,,,,,,,,,,,,,,,,,,,,,,,,,,,,,,,,,,,,,,,,,,,,,,,,,,,,,,,,,,,,,,,,,,,,,,,,,,,,,,,,,
66,,40.4786183,-3.372483,,,,,bar,,,,,,,,,,,,,,,,,,,,,,,,,,,,,,,,,,,,,,,,,,,,,,,,,,,,,,,,,,,,,,,,,,,,,,,,,,,,,,,,,,,,,,,
67,El Rincón de Víctor,40.4038625,-3.6909403,,,,Calle de las Delicias,bar,,,,,,,,,,,,,,,,,,,,,,,,,,,,,,,,,,,,,,,,,,,,,,,,,,,,,,,,,,,,,,,,,,,,,,,,,,,,,,,,,,,,,,,
68,Bodegas Rosell,40.4037318,-3.6909080999999997,Madrid,14,28045.0,Calle del General Lacy,bar,,,,,,,Q41958101,,,,,,,,,,,,,,,,,,,,,,,,,,,,,,,,,,,,,,,,,,,,,,,,,,,,,,,,,,,,,,,,,,,,,,,,,,,,,,,,
69,"Taberna ""El Vagón""",40.4007679,-3.697439,,33,,Calle del Ferrocarril,bar,,,,,,,,,,,,,,,,,,,,,,,,,,,,,,,,,,,,,,,,,,,,,,,,,,,,,,,,,,,,,,,,,,,,,,,,,,,,,,,,,,,,,,,
70,,40.6512476,-3.9983795,,,,,bar,,,,,,,,,,,,,,,,,,,,,,,,,,,,,,,,,,,,,,,,,,,,,,,,,,,,,,,,,,,,,,,,,,,,,,,,,,,,,,,,,,,,,,,
71,Cervecería 100 Montaditos,40.293341,-3.7910212999999997,,,,,bar,,,,,,,,,,,,,,,,,,,,,,,,,,,,,,,,,,,,,,,,,,,,,,,,,,,,,,,,,,,,,,,,,,,,,,,,,,,,,,,,,,,,,,,
72,,40.7853435,-3.9897564,,,,,bar,,,,,,,,,,,,,,,,,,,,,,,,,,,,,,,,,,,,,,,,,,,,,,,,,,,,,,,,,,,,,,,,,,,,,,,,,,,,,,,,,,,,,,,
73,Bar Payo,40.4500401,-3.4687175,,9,,Travesía del Río Jarama,bar,,,,,,,,,,,,,,,,,,,,,,,,,,,,,,,,,,,,,,,,,,,,,,,,,,,,,,,,,,,,,,,,,,,,,,,,,,,,,,,,,,,,,,,
74,,40.4024256,-3.7387495,,,,,bar,,,,,,,,,,,,,survey,,,,,,,,,,,,,,,,,,,,,,,,,,,,,,,,,,,,,,,,,,,,,,,,,,,,,,,,,,,,,,,,,,,,,,,,,,
75,Marem,40.4024487,-3.7386053,,,,,bar,,,,,,,,,,,,,survey,,,,,,,,,,,,,,,,,,,,,,,,,,,,,,,,,,,,,,,,,,,,,,,,,,,,,,,,,,,,,,,,,,,,,,,,,,
76,Indalo Tapas,40.4581401,-3.4524784,,,,,bar,,,,,,,,,,,,,survey,,,,,,,,,,,,,,,,,,,,,,,,,,,,,,,,,,,,,,,,,,,,,,,,,,,,,,,,,,,,,,,,,,,,,,,,,,
77,Las Pedroñeras,40.4528947,-3.4725182,,,,,bar,,,,,,,,,,,,,knowledge,,,,,,,,,,,,,,,,,,,,,,,,,,,,,,,,,,,,,,,,,,,,,,,,,,,,,,,,,,,,,,,,,,,,,,,,,,
78,Cafetería El Doble,40.4549322,-3.4806252,,,,,bar,,,,,,,,,,,,,knowledge,,,,,,,,,,,,,,,,,,,,,,,,,,,,,,,,,,,,,,,,,,,,,,,,,,,,,,,,,,,,,,,,,,,,,,,,,,
79,Cervecería Arco Iris,40.4435781,-3.4606803,,,,,bar,,,,,,,,,,,,,,,,,,,,,,,,,,,,,,,,,,,,,,,,,,,,,,,,,,,,,,,,,,,,,,,,,,,,,,,,,,,,,,,,,,,,,,,
80,Cocktail Bar,40.4534125,-3.469364,,10,,Ciudad Jardín del Rosario,bar,,,,,,,,,,,,,,,,,,,,,,,,,,,,,,,,,,,,,,,,,,,,,,,,,,,,,,,,,,,,,,,,,,,,,,,,,,,,,,,,,,,,,,,
81,El Extremeño,40.4553205,-3.4790332,,,,,bar,,,,,,,,,,,,,survey,,,,,,,,,,,,,,,,,,,,,,,,,,,,,,,,,,,,,,,,,,,,,,,,,,,,,,,,,,,,,,,,,,,,,,,,,,
82,Yessy,40.455579,-3.4776074,,,,,bar,,,,,,,,,,,,,,,,,,,,,,,,,,,,,,,,,,,,,,,,,,,,,,,,,,,,,,,,,,,,,,,,,,,,,,,,,,,,,,,,,,,,,,,
83,Benidorm,40.45779,-3.4714983,,,,,bar,,,,,,,,,,,,,,,,,,,,,,,,,,,,,,,,,,,,,,,,,,,,,,,,,,,,,,,,,,,,,,,,,,,,,,,,,,,,,,,,,,,,,,,
84,Bar Villanueva,40.3686309,-3.7588184,,,,,bar,,,,,,,,,,,,,,,,,,,,,,,,,,,,,,,,,,,,,,,,,,,,,,,,,,,,,,,,,,,,,,,,,,,,,,,,,,,,,,,,,,,,,,,
85,,40.3992814,-3.6852496,,,,,bar,,,,,,,,,,,,,,,,,,,,,,,,,,,,,,,,,,,,,,,,,,,,,,,,,,,,,,,,,,,,,,,,,,,,,,,,,,,,,,,,,,,,,,,
86,,40.3994543,-3.6857194,,,,,bar,,,,,,,,,,,,,,,,,,,,,,,,,,,,,,,,,,,,,,,,,,,,,,,,,,,,,,,,,,,,,,,,,,,,,,,,,,,,,,,,,,,,,,,
87,Antiguo bar La flor,40.4398176,-3.6759909,,,,,bar,,,,,,,,,,,,,,,,,,,,,,,,,,,,,,,,,,,,,,,,,,,,,,,,,,,,,,,,,,,,,,,,,,,,,,,,,,,,,,,,,,,,,,,
88,,40.4206674,-3.7910164,,,,,bar,,,,,,,,,,,,,,,,,,,,,,,,,,,,,,,,,,,,,,,,,,,,,,,,,,,,,,,,,,,,,,,,,,,,,,,,,,,,,,,,,,,,,,,
89,El Gusto es Nuestro,40.3660376,-3.6019428,,,,,bar,,,,,,,,,,,,,,,,,,,,,,,,,,,,,,,,,,,,,,,,,,,,,,,,,,,,,,,,,,,,,,,,,,,,,,,,,,,,,,,,,,,,,,,
90,Señorío de las Suertes,40.368165,-3.595425,,,,,bar,,,,,,,,,,,,,,,,,,,,,,,,,,,,,,,,,,,,,,,,,,,,,,,,,,,,,,,,,,,,,,,,,,,,,,,,,,,,,,,,,,,,,,,
91,Mas corazón,40.411457,-3.6990693,,,,,bar,,,,,,,,,,,,,,,,yes,yes,yes,,,,,,,,,,,,,,,,,,,,,,,,,,,,,,,,,,,,,,,,,,,,,,,,,,,,,,,,,,,,,,,,,,,,,
92,Circo de las Tapas,40.422331,-3.7041426,Madrid,21,28004.0,Corredera Baja de San Pablo,bar,circodelastapas@gmail.com,+34 911886014,http://www.circodelastapas.com/,,,,,,,,,,,,,,,,ES,,,,,,,,,,,,,,,,,,,,,,,,,,,,,,,,,,,,,,,,,,,,,,,,,,,,,,,,,,,,,,,,,,,,
93,La Cabaña,40.4429186,-3.4728521,,,,,bar,,,,,,,,,,,,,,,,,,,,,,,,,,,,,,,,,,,,,,,,,,,,,,,,,,,,,,,,,,,,,,,,,,,,,,,,,,,,,,,,,,,,,,,
94,La Taberna,40.4264755,-3.7037856,Madrid,9,28004.0,Calle de San Andrés,bar,,,,yes,,,,,,,,,,,,,,,,no,,,,,,,,,,,,,,,,,,,,,,,,,,,,,,,,,,,,,,,,,,,,,,,,,,,,,,,,,,,,,,,,,,,
95,,40.3263796,-3.9023838,,,,,bar,,,,,,,,,,,,,,,,,,,,,,,,,,,,,,,,,,,,,,,,,,,,,,,,,,,,,,,,,,,,,,,,,,,,,,,,,,,,,,,,,,,,,,,
96,Whitby,40.4291805,-3.6937519,,22,,Calle de Almagro,bar,,+34 913197088,https://www.whitby.es/,,,,,,,,,,,,,,,,,,Whitby,,,,,,,,,,,,,,,,,,,,,,,,,,,,,,,,,,,,,,,,,,,,,,,,,,,,,,,,,,,,,,,,,,
97,Marbella,40.4110231,-3.7048750999999998,Madrid,18,28012.0,Calle del Mesón de Paredes,bar,,,,,,,,,,,,,,,,,,,ES,,,,,,,,,,,,,,,,,,,,,,,,,,,,,,,,,,,,,,,,,,,,,,,,,,,,,,,,,,,,,,,,,,,,
98,Juana la Loca,40.4113626,-3.7110878,,,,,bar,,,,,,,,,,,,,,,,,,,,,,,,,,,,,,,,,,,,,,,,,,,,,,,,,,,,,,,,,,,,,,,,,,,,,,,,,,,,,,,,,,,,,,,
99,Mariano,40.4117813,-3.7053260999999997,,,,,bar,,,,,,,,,,,,,,,,,,,,,,,,,,,,,,,,,,,,,,,,,,,,,,,,,,,,,,,,,,,,,,,,,,,,,,,,,,,,,,,,,,,,,,,
100,Visconti,40.4530908,-3.615177,,,,,bar,,,,,,,,,,,,,,,,,,,,,,,,,,,,,,,,,,,,,,,,,,,,,,,,,,,,,,,,,,,,,,,,,,,,,,,,,,,,,,,,,,,,,,,
101,Lennon,40.3380649,-3.3811821,,,,,bar,,,,,,,,,,,,,survey,,,,,,,,,,,,,,,,,,,,,,,,,,,,,,,,,,,,,,,,,,,,,,,,,,,,,,,,,,,,,,,,,,,,,,,,,,
102,El Mirador,40.3971391,-3.6553321,,,,,bar,,,,,,,,,,,,,,,,,,,,,El Mirador,,,,,,,,,,,,,,,,,,,,,,,,,,,,,,,,,,,,,,,,,,,,,,,,,,,,,,,,,,,,,,,,,,
103,Goa,40.4743221,-3.8686954,,,,,bar,,,,,,,,,,,,,,,,,,,,,,,,,,,,,,,,,,,,,,,,,,,,,,,,,,,,,,,,,,,,,,,,,,,,,,,,,,,,,,,,,,,,,,,
104,Bar la Esquina Latina,40.4733208,-3.6508642,,,,,bar,,,,,,,,,,,,,,,,,,,,,,,,,,,,,,,,,,,,,,,,,,,,,,,,,,,,,,,,,,,,,,,,,,,,,,,,,,,,,,,,,,,,,,,
105,Danny's Jazz,40.4736244,-3.7236085,,63,28035.0,Calle Doctor Ramón Castroviejo,bar,,,,,,,,,,,,,,,,,,,,,,pub,,,,,,,,,,,,,,,,,,,,,,,,,,,,,,,,,,,,,,,,,,,,,,,,,,,,,,,,,,,,,,,,,
106,FLOWERS,40.5540143,-3.8996439,,2,,ROSA DE LIMA,bar,,,,,,,,,,,,,,,,,,,,,,,,,,,,,,,,,,,,,,,,,,,,,,,,,,,,,,,,,,,,,,,,,,,,,,,,,,,,,,,,,,,,,,,
107,Pin Up,40.4452379,-3.6983686000000002,,29,,Calle Maudes,bar,,,,,,,,,,,,,,,,,,,,,,,free,,,,,,,,,,,,,,,,,,,,,,,,,,,,,,,,,,,,,,,,,,,,,,,,,,,,,,,,,,,,,,,,
108,Torres,40.4444547,-3.5948038,,,,,bar,,,,,,,,,,,,,,,,,,,,,,,,,,,,,,,,,,,,,,,,,,,,,,,,,,,,,,,,,,,,,,,,,,,,,,,,,,,,,,,,,,,,,,,
109,Beer-cola,40.4491678,-3.5948737,,,,Plaza San Cristóbal,bar,,,,,,,,,,,,,,,,,,,,,,,,,,,,,,,,,,,,,,,,,,,,,,,,,,,,,,,,,,,,,,,,,,,,,,,,,,,,,,,,,,,,,,,
110,Peska,40.7281729,-3.8649777,,,,,bar,,,,,,,,,,,,,,,,,,,,,,,,survey,,,,,,,,,,,,,,,,,,,,,,,,,,,,,,,,,,,,,,,,,,,,,,,,,,,,,,,,,,,,,,,
111,,40.4437315,-3.5758806,,,,,bar,,,,,,,,,,,,no,,,,,,,,,,,,,,,,,,,,,,,,,,,,,,,,,,,,,,,,,,,,,,,,,,,,,,,,,,,,,,,,,,,,,,,,,,,
112,Hasta los Andares,40.4238729,-3.6926356,Madrid,,28004.0,Calle del Marqués de la Ensenada,bar,,,,,,,,,,El Birrete,,no,,,,,,,,,,,,,,,,,,,,,,,,,,,,,,,,,,,,,,,,,,,,,,,,,,,,,,,,,,,,,,,,,,,,,,,,,,,
113,La extremeña,40.4114997,-3.709931,,,,,bar,,,,,,,,,,,,,,,,,,,,,,,,,,,,,,,,,,,,,,,,,,,,,,,,,,,,,,,,,,,,,,,,,,,,,,,,,,,,,,,,,,,,,,,
114,Cherokee,40.4260706,-3.6956282,Madrid,12,28004.0,Calle de Campoamor,bar,,,,,,,,,http://www.grupocherokee.es/,Maïbar,,,,,,,,,,,,,,,,,,,,,,,,,,,,,,,,,,,,,,,,,,,,,,,,,,,,,,,,,,,,,,,,,,,,,,,,,,,,,
115,Bar Escalera del 34,40.4347019,-3.681434,Madrid,,,Calle de Diego de León,bar,,,,,,,,,,,,,,,,,,,,,,,,,,,,,,,,,,,,,,,,,,,,,,,,,,,,,,,,,,,,,,,,,,,,,,,,,,,,,,,,,,,,,,,
116,Orgaz,40.4359258,-3.6805101000000002,,,,,bar,,,,,,,,,,,,,,,,,,,,,,,,,,,,,,,,,,,,,,,,,,,,,,,,,,,,,,,,,,,,,,,,,,,,,,,,,,,,,,,,,,,,,,,
117,Bar Rubí,40.4349724,-3.6805545,Madrid,107,28006.0,Calle de Castelló,bar,,,,,,+34 915623106,,,,,,,,,,,,,ES,,,,,,,,,,,,,,,,,,,,,,,,,,,,,,,,,,,,,,,,,,,,,,,,,,,,,,,,,,,,,,,,,,,,
118,Kiosco,40.3943622,-3.7463914,,,,,bar,,,,,,,,,,,,,,,,,,,,,,,,,,,,,,,,,,,,,,,,,,,,,,,,,,,,,,,,,,,,,,,,,,,,,,,,,,,,,,,,,,,,,,,
119,Ferrari,40.4241816,-3.7037685,Madrid,35,28004.0,Calle de la Madera,bar,,,,,,,,,,Doña Pepita,,,,,,,,,,,,,,,Metropolitain,,,,,,,,,,,,,,,,,,,,,,,,,,,,,,,,,,,,,,,,,,,,,,,,,,,,,,,,,,,,,,
120,,40.3124275,-3.7154938,,,,,bar,,,,,,,,,,,,,,,,,,,,,,,,,,,,,,,,,,,,,,,,,,,,,,,,,,,,,,,,,,,,,,,,,,,,,,,,,,,,,,,,,,,,,,,
121,,40.3116608,-3.7170433,,,,,bar,,,,,,,,,,,,,,,,,,,,,,,,,,,,,,,,,,,,,,,,,,,,,,,,,,,,,,,,,,,,,,,,,,,,,,,,,,,,,,,,,,,,,,,
122,,40.3114048,-3.7160678,,,,,bar,,,,,,,,,,,,,,,,,,,,,,,,,,,,,,,,,,,,,,,,,,,,,,,,,,,,,,,,,,,,,,,,,,,,,,,,,,,,,,,,,,,,,,,
123,,40.3122148,-3.7177576,,,,,bar,,,,,,,,,,,,,,,,,,,,,,,,,,,,,,,,,,,,,,,,,,,,,,,,,,,,,,,,,,,,,,,,,,,,,,,,,,,,,,,,,,,,,,,
124,,40.3127711,-3.7145818999999998,,,,,bar,,,,,,,,,,,,,,,,,,,,,,,,,,,,,,,,,,,,,,,,,,,,,,,,,,,,,,,,,,,,,,,,,,,,,,,,,,,,,,,,,,,,,,,
125,,40.3124929,-3.7145872,,,,,bar,,,,,,,,,,,,,,,,,,,,,,,,,,,,,,,,,,,,,,,,,,,,,,,,,,,,,,,,,,,,,,,,,,,,,,,,,,,,,,,,,,,,,,,
126,El Pilón,40.9021783,-3.8785336,,,,,bar,,,,,,,,,,,,,,,,,,,,,,,,,,,,,,,,,,,,,,,,,,,,,,,,,,,,,,,,,,,,,,,,,,,,,,,,,,,,,,,,,,,,,,,
127,La Venencia,40.4157993,-3.6995741,Madrid,7,28014.0,Calle de Echegaray,bar,,,,,,,,,,,"Mo-Su 12:30-15:30,19:30+",,,tapas,,,,,ES,,,,,,,"Mo-Su 12:30-15:30,19:30+",,,,,,,,,,,,,,,,,,,,,,,,,,,,,,,,,,,,,,,,,,,,,,,,,,,,,,,,,,,,,
128,El Castizo,40.4557311,-3.4519868,,,,,bar,,,,,,,,,,,,,,,,,,,,,,,,,,,,,,,,,,,,,,,,,,,,,,,,,,,,,,,,,,,,,,,,,,,,,,,,,,,,,,,,,,,,,,,
129,La Encina,40.455409,-3.4519252,,,,,bar,,,,,,,,,,,,,,,,,,,,,,,,,,,,,,,,,,,,,,,,,,,,,,,,,,,,,,,,,,,,,,,,,,,,,,,,,,,,,,,,,,,,,,,
130,,40.3859666,-3.7443343000000002,,,,,bar,,,,,,,,,,,,,,,,,,,,,,,,,,,,,,,,,,,,,,,,,,,,,,,,,,,,,,,,,,,,,,,,,,,,,,,,,,,,,,,,,,,,,,,
131,El Extremeño,40.3332077,-3.7636943,,,,,bar,,,,,,,,,,,,,,,,,,,,,,,,,,,,,,,,,,,,,,,,,,,,,,,,,,,,,,,,,,,,,,,,,,,,,,,,,,,,,,,,,,,,,,,
132,Casa Paco,40.3332838,-3.7640739,,,,,bar,,,,,,,,,,,,,,,,,,,,,,,,,,,,,,,,,,,,,,,,,,,,,,,,,,,,,,,,,,,,,,,,,,,,,,,,,,,,,,,,,,,,,,,
133,El Chiscón,40.333294,-3.7641678,,,,,bar,,,,,,,,,,,,,,,,,,,,,,,,,,,,,,,,,,,,,,,,,,,,,,,,,,,,,,,,,,,,,,,,,,,,,,,,,,,,,,,,,,,,,,,
134,La Buhardilla,40.3333124,-3.764031,,,,,bar,,,,,,,,,,,,,,,,,,,,,,,,,,,,,,,,,,,,,,,,,,,,,,,,,,,,,,,,,,,,,,,,,,,,,,,,,,,,,,,,,,,,,,,
135,La Escapada,40.3332449,-3.7638781,,,,,bar,,,,,,,,,,,,,,,,,,,,,,,,,,,,,,,,,,,,,,,,,,,,,,,,,,,,,,,,,,,,,,,,,,,,,,,,,,,,,,,,,,,,,,,
136,Delphinus,40.3989605,-3.6018376,,,,,bar,,,,,,,,,,,,,,,,,,,,,,,,,,,,,,,,,,,,,,,,,,,,,,,,,,,,,,,,,,,,,,,,,,,,,,,,,,,,,,,,,,,,,,,
137,El Pinchito,40.4206448,-3.5679418,,,,,bar,,,,,,,,,,,,,,,,,,,,,,,,,,,,,,,,,,,,,,,,,,,,,,,,,,,,,,,,,,,,,,,,,,,,,,,,,,,,,,,,,,,,,,,
138,El Coyote Solitario,40.2291451,-3.5952371,,,,,bar,,,,,,,,,,,,,,,,,,,,,,,,,,,,,,,,,,,,,,,,,,,,,,,,,,,,,,,,,,,,,,,,,,,,,,,,,,,,,,,,,,,,,,,
139,Callejón de Serrano,40.4326692,-3.6872715,Madrid,63,28006.0,Calle de Serrano,bar,,+34 918310489,http://www.elcallejondeserrano.com/,,,,,,,,,,,,,,,,,,,,,,,,yes,,,,,,,,,,,,,,,,,,,,,,,,,,,,,,,,,,,,,,,,,,,,,,,,,,,,,,,,,,,,
140,El Rincón de Gorry,40.338361,-3.3809899,,,,,bar,,,,,,,,,,,,,,,,,,,,,,,,,,,,,,,,,,,,,,,,,,,,,,,,,,,,,,,,,,,,,,,,,,,,,,,,,,,,,,,,,,,,,,,
141,Cervecería Lucarpa,40.405594,-3.7536186,,,,,bar,,,,,,,,,,,,,,,,,,,,,,,,,,,,,,,,,,,,,,,,,,,,,,,,,,,,,,,,,,,,,,,,,,,,,,,,,,,,,,,,,,,,,,,
142,Bar El Paso,40.4101824,-3.7390949,,,,,bar,,,,,,,,,,,,,,,,,,,,,,,,,,,,,,,,,,,,,,,,,,,,,,,,,,,,,,,,,,,,,,,,,,,,,,,,,,,,,,,,,,,,,,,
143,La Fontana de Oro,40.4163668,-3.7015661,,,,,bar,,,,,,,,,,,,,,,,,,,,,,,,,,,,,,,,,,,,,,,,,,,,,,,,,,,,,,,,,,,,,,,,,,,,,,,,,,,,,,,,,,,,,,,
144,Il Morto Che Parla,40.4088976,-3.6990670999999997,,,,,bar,,,,,,,,,,,,,,,,,,,,,,,,,,,,,,,,,,,,,,,,,,,,,,,,,,,,,,,,,,,,,,,,,,,,,,,,,,,,,,,,,,,,,,,
145,Mader Faker,40.4256127,-3.7027497,Madrid,17,28004.0,Calle de San Vicente Ferrer,bar,,,,,,,,,http://www.maderfaker.com/es/club.html,,,,,,,,,,,,,,,,,,,This is the actual name of this funky bar/pub/club,,,,,,,,,,,,,,,,,,,,,,,,,,,,,,,,,,,,,,,,,,,,,,,,,,,,,,,,,,,
146,The Harp,40.4131464,-3.6960507,,,,,bar,,,,,,,,,,The Variety,,,,irish,,,,,,,,,,,,,,,,,,,,,,,,,,,,,,,,,,,,,,,,,,,,,,,,,,,,,,,,,,,,,,,,,,,,,,,,,
147,Monty,40.4061026,-3.7532888,,,,,bar,,,,,,,,,,,,,,,,,,,,,,,,,,,,,,,,,,,,,,,,,,,,,,,,,,,,,,,,,,,,,,,,,,,,,,,,,,,,,,,,,,,,,,,
148,,40.3960566,-3.7649153,,,,,bar,,,,,,,,,,,,,,,,,,,,,,,,,,,,,,,,,,,,,,,,,,,,,,,,,,,,,,,,,,,,,,,,,,,,,,,,,,,,,,,,,,,,,,,
149,Honky Tonk,40.4300911,-3.697607,,24,,Calle de Covarrubias,bar,,,,,,,,,,,,,,,,,,,,,,,,,,,,,Vaquita del Honky,,,,,,,,,,,,,,,,,,,,,,,,,,,,,,,,,,,,,,,,,,,,,,,,,,,,,,,,,,
150,El Casco Viejo,40.4205089,-3.6992035999999997,,,,,bar,,,,,,,,,,,,,survey,,,,,,,,,,,,,,,,,,,,,,,,,,,,,,,,,,,,,,,,,,,,,,,,,,,,,,,,,,,,,,,,,,,,,,,,,,
151,Habana 5 Bar,40.4482711,-3.6899093,,,,,bar,,,,,,,,,,,,,,,,,,,,,,,,,,,,,,,,,,,,,,,,,,,,,,,,,,,,,,,,,,,,,,,,,,,,,,,,,,,,,,,,,,,,,,,
152,Santinno,40.4588188,-3.8615180000000002,,,,,bar,,,,yes,,,,,,,,,,,,,,,,no,,,,,,,,,,,,,,,,,,,,,,,,,,,,,,,,,,,,,,,,,,,,,,,,,,,,,,,,,,,,,,,,,,,
153,La Mancha,40.4587714,-3.4498016,,,,,bar,,,,,,,,,,,,,survey,,,,,,,,,,,,,,,,,,,,,,,,,,,,,,,,,,,,,,,,,,,,,,,,,,,,,,,,,,,,,,,,,,,,,,,,,,
154,Tarantela,40.4593515,-3.4482045,,,,,bar,,,,,,,,,,,,,survey,,,,,,,,,,,,,,,,,,,,,,,,,,,,,,,,,,,,,,,,,,,,,,,,,,,,,,,,,,,,,,,,,,,,,,,,,,
155,Zeppelin,40.5785995,-3.9533583,,,,,bar,,,,,,,,,,,,,,,,,,,,,,,,,,,,,,,,,,,,,,,,,,,,,,,,,,,,,,,,,,,,,,,,,,,,,,,,,,,,,,,,,,,,,,,
156,Castilla León,40.4598868,-3.4720773,,,,,bar,,,,,,,,,,,,,knowledge,,,,,,,,,,,,,,,,,,,,,,,,,,,,,,,,,,,,,,,,,,,,,,,,,,,,,,,,,,,,,,,,,,,,,,,,,,
157,Doan,40.4583526,-3.4699757,,,,,bar,,,,,,,,,,,,,knowledge,,,,,,,,,,,,,,,,,,,,,,,,,,,,,,,,,,,,,,,,,,,,,,,,,,,,,,,,,,,,,,,,,,,,,,,,,,
158,Los Tulipanes,40.4583102,-3.4707175,,,,,bar,,,,,,,,,,,,,knowledge,,,,,,,,,,,,,,,,,,,,,,,,,,,,,,,,,,,,,,,,,,,,,,,,,,,,,,,,,,,,,,,,,,,,,,,,,,
159,O'Neno,40.4582354,-3.4700598,,,,,bar,,,,,,,,,,,,,knowledge,,,,,,,,,,,,,,,,,,,,,,,,,,,,,,,,,,,,,,,,,,,,,,,,,,,,,,,,,,,,,,,,,,,,,,,,,,
160,Langa,40.4062505,-3.7492638,,,,,bar,,,,,,,,,,,,,,,,,,,,,,,,,,,,,,,,,,,,,,,,,,,,,,,,,,,,,,,,,,,,,,,,,,,,,,,,,,,,,,,,,,,,,,,
161,Las Cosas de Dos,40.4078039,-3.7437234,,,,,bar,,,,,,,,,,,,,,,,,,,,,,,,,,,,,,,,,,,,,,,,,,,,,,,,,,,,,,,,,,,,,,,,,,,,,,,,,,,,,,,,,,,,,,,
162,Marimba,40.4110987,-3.7027101,,,,,bar,,,,,,,,,,Taque?,,,,,,,,,,,,,,,,,,,,,,,,,,,,,,,,,,,,,,,,,,,,,,,,,,,,,,,,,,,,,,,,,,,,,,,,,,,,,
163,Santurce,40.4096781,-3.7077827,Madrid,14,28005.0,Calle de las Amazonas,bar,,,,limited,,,,,,,,,,,,,,,,,,,,,,,,,,"Planta lisa, escalon 7 cm",,,,,,,,,,,,,,,,,,,,,,,,,,,,,,,,,,,,,,,,,,,,,,,,,,,,,,,,,
164,Alegría,40.3746067,-3.6198376999999997,,,,,bar,,,,,,,,,,,,,,,,,,,,,,,,,,,,,,,,,,,,,,,,,,,,,,,,,,,,,,,,,,,,,,,,,,,,,,,,,,,,,,,,,,,,,,,
165,Sport,40.3746007,-3.6201543,,,,,bar,,,,,,,,,,,,,,,,,,,,,,,,,,,,,,,,,,,,,,,,,,,,,,,,,,,,,,,,,,,,,,,,,,,,,,,,,,,,,,,,,,,,,,,
166,San Julián,40.3759226,-3.6204707,,,,,bar,,,,,,,,,,,,,,,,,,,,,,,,,,,,,,,,,,,,,,,,,,,,,,,,,,,,,,,,,,,,,,,,,,,,,,,,,,,,,,,,,,,,,,,
167,Bar Beryan,40.448713,-3.4678401,,,,,bar,,,,,,,,,,,,,knowledge,,,,,,,,,,,,,,,,,,,,,,,,,,,,,,,,,,,,,,,,,,,,,,,,,,,,,,,,,,,,,,,,,,,,,,,,,,
168,El Cazador,40.449167,-3.4679372,,,,,bar,,,,,,,,,,,,,knowledge,,,,,,,,,,,,,,,,,,,,,,,,,,,,,,,,,,,,,,,,,,,,,,,,,,,,,,,,,,,,,,,,,,,,,,,,,,
169,Bar San Lorenzo,40.4088323,-3.6989418,,,,,bar,,,,limited,,,,,,,,,,,,,,,,,,,,,,,,,,,,,,,,,,,,,,,,,,,,,,,,,,,,,,,,,,,,,,,,,,,,,,,,,,,,,,,,,,,
170,,40.5766989,-3.9307666,,,,,bar,,,,,,,,,,,,,,,,,,,,,,,,,,,,,,,,,,,,,,,,,,,,,,,,,,,,,,,,,,,,,,,,,,,,,,,,,,,,,,,,,,,,,,,
171,Bar El Parque,40.3124785,-3.7876393,,,,C/,bar,,,,,,,,,,,,,,,,,,,,,,,,,,,,,,,,,,,,,,,,,,,,,,,,,,,,,,,,,,,,,,,,,,,,,,,,,,,,,,,,,,,,,,,
172,Bar Serena,40.394147,-3.7577841,,,,,bar,,,,,,,,,,,,,,,,,,,,,,,,,,,,,,,,,,,,,,,,,,,,,,,,,,,,,,,,,,,,,,,,,,,,,,,,,,,,,,,,,,,,,,,
173,Bar de Fénix,40.3858017,-3.7592613999999998,,,,,bar,,,,,,,,,,,,,,,,,,,,,,,,,,,,,,,,,,,,,,,,,,,,,,,,,,,,,,,,,,,,,,,,,,,,,,,,,,,,,,,,,,,,,,,
174,Terraza,40.3866802,-3.7582421999999998,,,,,bar,,,,,,,,,,,,,,,,,,,,,,,,,,,,,,,,,,,,,,,,,,,,,,,,,,,,,,,,,,,,,,,,,,,,,,,,,,,,,,,,,,,,,,,
175,,40.3859498,-3.7632877000000002,,,,,bar,,,,,,,,,,,,,,,,,,,,,,,,,,,,,,,1.0,,,,,,,,,,,,,,,,,,,,,,,,,,,,,,,,,,,,,,,,,,,,,,,,,,,,,,,,
176,Bar Campillo,40.4522701,-3.4693328,,,,,bar,,,,,,,,,,,,,knowledge,,,,,,,,,,,,,,,,,,,,,,,,,,,,,,,,,,,,,,,,,,,,,,,,,,,,,,,,,,,,,,,,,,,,,,,,,,
177,Mi Taberna,40.4518327,-3.4708442,,,,,bar,,,,,,,,,,,,,survey,,,,,,,,,,,,,,,,,,,,,,,,,,,,,,,,,,,,,,,,,,,,,,,,,,,,,,,,,,,,,,,,,,,,,,,,,,
178,Rodas,40.4523388,-3.4697664,,,,,bar,,,,,,,,,,,,,knowledge,,,,,,,,,,,,,,,,,,,,,,,,,,,,,,,,,,,,,,,,,,,,,,,,,,,,,,,,,,,,,,,,,,,,,,,,,,
179,Villanueva,40.4516829,-3.4682505,,,,,bar,,,,,,,,,,,,,knowledge,,,,,,,,,,,,,,,,,,,,,,,,,,,,,,,,,,,,,,,,,,,,,,,,,,,,,,,,,,,,,,,,,,,,,,,,,,
180,Silver Smith,40.449233,-3.4675994,,,,,bar,,,,,,,,,,,,,survey,,,,,,,,,,,,,,,,,,,,,,,,,,,,,,,,,,,,,,,,,,,,,,,,,,,,,,,,,,,,,,,,,,,,,,,,,,
181,El Uno de Molina,40.438126,-3.6896922,,,,,bar,,,,,,,,,,,,,,,,,,,,,,,,,,,,,,,,,,,,,,,,,,,,,,,,,,,,,,,,,,,,,,,,,,,,,,,,,,,,,,,,,,,,,,,
182,Eiffel,40.3985779,-3.7596143,,,,,bar,,,,,,,,,,,,,,,,,,,,,,,,,,,,,,,,,,,,,,,,,,,,,,,,,,,,,,,,,,,,,,,,,,,,,,,,,,,,,,,,,,,,,,,
183,El Paisano,40.4597179,-3.4743303,,,,,bar,,,,,,,,,,,,,knowledge,,,,,,,,,,,,,,,,,,,,,,,,,,,,,,,,,,,,,,,,,,,,,,,,,,,,,,,,,,,,,,,,,,,,,,,,,,
184,La Paloma,40.4584715,-3.4751585,,,,,bar,,,,,,,,,,,,,knowledge,,,,,,,,,,,,,,,,,,,,,,,,,,,,,,,,,,,,,,,,,,,,,,,,,,,,,,,,,,,,,,,,,,,,,,,,,,
185,Londres,40.4597551,-3.4742645,,,,,bar,,,,,,,,,,,,,knowledge,,,,,,,,,,,,,,,,,,,,,,,,,,,,,,,,,,,,,,,,,,,,,,,,,,,,,,,,,,,,,,,,,,,,,,,,,,
186,Ibiza,40.4217211,-3.5325541,,1,28830.0,Calle de Gabriel Celaya,bar,,,,,,,,,,,,,,,,,,,,,,,,,,,,,,,,,,,,,,,,,,,,,,,,,,,,,,,,,,,,,,,,,,,,,,,,,,,,,,,,,,,,,,,
187,Taberna El Despacho,40.456798,-3.475862,,73,,Avenida de la Constitución,bar,,,,,,,,,,,,,survey,,,,,,,,,,,,,,,,,,,,,,,,,,,,,,,,,,,,,,,,,,,,,,,,,,,,,,,,,,,,,,,,,,,,,,,,,,
188,Off de La Latina,40.4120586,-3.7119024,Madrid,4,28005.0,Calle de los Mancebos,bar,,,,,,,,,,,,,,,,,,,,,,,,,,,,,,,,,,,,,,,,,,,,,,,,,,,,,,,,,,,,,,,,,,,,,,,,,,,,,,,,,,,,,,,
189,Taberna La Buha,40.411533,-3.7100077000000002,Madrid,10,28005.0,Plaza de la Cebada,bar,,,,,https://www.facebook.com/pages/Taberna-La-Buha/428129333969165,,,,,,,,,,,,,,,,,,,,,,,,,,,,,,,,,,,,,,,,,,,,,,,,,,,,,,,,,,,,,,,,,,,,,,,,,,,,,,,,,,
190,La Villa,40.3375353,-3.3839228,,,,,bar,,,,,,,,,,,,,knowledge,,,,,,,,,,,,,,,,,,,,,,,,,,,,,,,,,,,,,,,,,,,,,,,,,,,,,,,,,,,,,,,,,,,,,,,,,,
191,1X2,40.3373192,-3.3839709,,,,,bar,,,,,,,,,,,,,knowledge,,,,,,,,,,,,,,,,,,,,,,,,,,,,,,,,,,,,,,,,,,,,,,,,,,,,,,,,,,,,,,,,,,,,,,,,,,
192,El Toro,40.575376,-3.9288487,,,,,bar,,+34 671 08 47 27,,,http://www.facebook.com/pages/el-toro-pinchos-copas/118169691592457,,,,,,,,,,,,,,,,,,,,,"Especialidad en pinchos fríos y calientes, recién elaborados. La fórmula es muy sencilla y cómoda para el cliente. Se sienta uno en la terraza o en la Sala, se pide la bebida y a partir de ahí a disfrutar de los platos y tapas que nos van ofreciendo",,,,,,,,,,,,,,,,,,,,,,,,,,,,,,,,,,,,,,,,,,,,,,,,,,,,,,,,,,,,,
193,Los Juncales,40.4607118,-3.4757649,,,,,bar,,+34 91 142 9125,,,,,,,,,,,survey,,,,,,,,,,,,,,,,,,,,,,,,,,,,,,,,,,,,,,,,,,,,,,,,,,,,,,,,,,,,,,,,,,,,,,,,,,
194,Cómete el Mundo,40.4125509,-3.7032669,,,,,bar,,,,,,,,,,La Tapa del Mundo,,,,,,,,,,,,,,,,,,,,,,,,,,,,,,,,,,,,,,,,,,,,,,,,,,,,,,,,,,,,,,,,,,,,,,,,,,,,,
195,Sidrería La Vega,40.4061002,-3.7539168,,,,,bar,,,,,,,,,,,,,,,,,,,,,,,,,,,,,,,,,,,,,,,,,,,,,,,,,,,,,,,,,,,,,,,,,,,,,,,,,,,,,,,,,,,,,,,
196,,40.4074154,-3.7461911,,,,,bar,,,,,,,,,,,,,,,,,,,,,,,,,,,,,,,,,,,,,,,,,,,,,,,,,,,,,,,,,,,,,,,,,,,,,,,,,,,,,,,,,,,,,,,
197,Madrid-Dakar,40.4452324,-3.6977731,,,,,bar,,,,,,,,,,,,,,,,,,,,,,,,,,,,,,,,,,,,,,,,,,,,,,,,,,,,,,,,,,,,,,,,,,,,,,,,,,,,,,,,,,,,,,,
198,La Mancha,40.4071316,-3.6999115,,,,,bar,,,,,,,,,,,,,,,,,,,,,,,,,,,,,,,,,,,,,,,,,,,,,,,,,,,,,,,,,,,,,,,,,,,,,,,,,,,,,,,,,,,,,,,
199,Bar La Vuelta,40.4117164,-3.6746523,,,,,bar,,,,,,,,,,,,,,,,,,,,,,,free,,,,,,,,,,,,,,,,,,,,,,,,,,,,,,,,,,,,,,,,,,,,,,,,,,,,,,,,,,,,,,,,
200,Chiquitín,40.3970697,-3.7684256,,,,,bar,,,,,,,,,,,,,,,,,,,,,,,,,,,,,,,,,,,,,,,,,,,,,,,,,,,,,,,,,,,,,,,,,,,,,,,,,,,,,,,,,,,,,,,
201,Taberna Almería,40.4108615,-3.7123661,,,28005.0,Calle de las Aguas,bar,,,,,,,,,,,,,,,,,,,,,,,,,,,,,,,,,,,,,,,,,,,,,,,,,,,,,,,,,,,,,,,,,,,,,,,,,,,,,,,,,,,,,,,
202,Bar Duque,40.4358531,-3.4716981,,74,,Calle de la Magdalena,bar,,,,,,,,,,,,,survey,,,,,,,,,,,,,,,,,,,,,,,,,,,,,,,,,,,,,,,,,,,,,,,,,,,,,,,,,,,,,,,,,,,,,,,,,,
203,Bar Rubio,40.4350306,-3.470998,,,,,bar,,,,,,,,,,,,,survey,,,,,,,,,,,,,,,,,,,,,,,,,,,,,,,,,,,,,,,,,,,,,,,,,,,,,,,,,,,,,,,,,,,,,,,,,,
204,O'Breogan,40.412932,-3.719545,,,28005.0,Calle de Juan Duque,bar,,,,,,,,,,,"Su-Th 10:00-01:00; Fr,Sa 10:00-02:30",,,,,,,,,,,,no,,,,,,,,,,,,,,,,,,,,,,,,,,,,,,,,,,,,,,,,,,,,,,,,,,,,,,,,,,,,,,,,
205,Bar Hortaleza,40.4226539,-3.699278,,60,,Calle de Hortaleza,bar,,,,,,,,,,,,,,,,,,,,,,,,,,,,,,,,,,,,,,,,,,,,,,,,,,,,,,,,,,,,,,,,,,,,,,,,,,,,,,,,,,,,,,,
206,Bar Hermoso,40.4967486,-3.6901175999999998,,,,,bar,,,,,,,,,,,,,,,,,,,,,,,,,,,,,,,,,,,,,,,,,,,,,,,,,,,,,,,,,,,,,,,,,,,,,,,,,,,,,,,,,,,,,,,
207,Doberman,40.4932192,-3.6548226,Madrid,,,Calle del Príncipe Carlos,bar,,,,,,,,,,,,,,,,,,,,,,,,,,,,,,,,yes,,,,,,,,,,,,,,,,,,,,,,,,,,,,,,,,,,,,,,,,,,,,,,,,,,,,,,,
208,Rocco,40.5994572,-3.9824821999999998,,,,,bar,,,,,,,,,,,,,,,,,,,,,,,,,,,,,,,,,,,,,,,,,,,,,,,,,,,,,,,,,,,,,,,,,,,,,,,,,,,,,,,,,,,,,,,
209,Bar Hawaii,40.4223805,-3.6999706999999997,Madrid,,28004.0,Calle de Pérez Galdós,bar,,+34 915 23 14 08,,,https://es-es.facebook.com/pages/Cafeteria-Hawaii/235272912205,,,,,,,,,,,,,,,,,,,,,,,,,,,,Justicia,,,,,,,,,,,,,,,,,,,,,,,,,,,,,,,,,,,,,,,,,,,,,,,,,,,,,,
210,Huete,40.4426945,-3.7018820999999997,,,,,bar,,,,,,,,,,,,,,,,,,,,,,,,,,,,,,,,,,,,,,,,,,,,,,,,,,,,,,,,,,,,,,,,,,,,,,,,,,,,,,,,,,,,,,,
211,Beef,40.4224648,-3.6775513,,,,,bar,,,,,,,,,,,,,,,,,,,,,,,,,,,,,,,,,,,,,,,,,,,,,,,,,,,,,,,,,,,,,,,,,,,,,,,,,,,,,,,,,,,,,,,
212,Bar Santullán,40.4549483,-3.4807861,,,,,bar,,,,,,,,,,,,,knowledge,,,,,,,,,,,,,,,,,,,,,,,,,,,,,,,,,,,,,,,,,,,,,,,,,,,,,,,,,,,,,,,,,,,,,,,,,,
213,Alhambra,40.4565433,-3.4802377,,,,,bar,,,,,,,,,,,,,knowledge,,,,,,,,,,,,,,,,,,,,,,,,,,,,,,,,,,,,,,,,,,,,,,,,,,,,,,,,,,,,,,,,,,,,,,,,,,
214,Café La Platea,40.4599657,-3.4749657,,,,,bar,,,,,,+34 91 656 84 56,,,,,,,survey,,,,,,,,,,,,,,,,,,,,,,,,,,,,,,,,,,,,,,,,,,,,,,,,,,,,,,,,,,,,,,,,,,,,,,,,,,
215,Cervantes,40.4142594,-3.6958188,,,,,bar,,,,,,,,,,,,,,,,,,,,,,,,,,,,,,,,,,,,,,,,,,,,,,,,,,,,,,,,,,,,,,,,,,,,,,,,,,,,,,,,,,,,,,,
216,Bodega Toñín,40.3931717,-3.7516088,,,,,bar,,,,,,,,,,Toñin,,,,,,,,,,,,,,,,,,,,,,,,,,,,,,,,,,,,,,,,,,,,,,,,,,,,,,,,,,,,,,,,,,,,,,,,,,,,,
217,Jumar II,40.4320988,-3.5434837999999997,,,,,bar,,,,,,,,,,,,,,,,,,,,,,,no,,,,,,,,,,,,,,,,,,,,,,,,,,,,,,,,,,,,,,,,,,,,,,,,,,,,,,,,,,,,,,,,
218,"Medisamar ""La cocina de mamá"" S.L.",40.4417446,-3.3608472,,,,,bar,,,,,,,,,,,,,,,,,,,,,,,,,,,,,,,,,,,,,,,,,,,,,,,,,,,,,,,,,,,,,,,,,,,,,,,,,,,,,,,,,,,,,,,
219,,40.3151306,-3.8558992,,,,,bar,,,,,,,,,,,,,,,,,,,,,,,,,,,,,,,,,,,,,,,,,,,,,,,,,,,,,,,,,,,,,,,,,,,,,,,,,,,,,,,,,,,,,,,
220,Eduardo's,40.3154237,-3.8554847,,,,,bar,,,,,,,,,,,,,,,,,,,,,,,,,,,,,,,,,,,,,,,,,,,,,,,,,,,,,,,,,,,,,,,,,,,,,,,,,,,,,,,,,,,,,,,
221,5ª Avenida,40.3151402,-3.8552109999999997,,,,,bar,,,,,,,,,,,,,,,,,,,,,,,,,,,,,,,,,,,,,,,,,,,,,,,,,,,,,,,,,,,,,,,,,,,,,,,,,,,,,,,,,,,,,,,
222,Donde siempre Móstoles,40.3133845,-3.8585731,Móstoles,8,28938.0,Calle Andrómeda,bar,dondesiempremostoles@gmail.com,+34 91 6469844,,yes,https://es-es.facebook.com/dondesiempremostoles,,,,,,Mo-Th 07:00-01:00, Fr 07:00-02:00, Sa 09:00-02:00, Su 09:00-01:00,,,,,,,,,no,,,,,,,,,,,,,,,,,,,,,,,,,,,,,,,,,,,,,,,,,,,,,,,,,,,,,,,,,,,,,,,,
223,Las Rías,40.453902,-3.4695532,,,,,bar,,,,,,,,,,,,,survey,,,,,,,,,,,,,,,,,,,,,,,,,,,,,,,,,,,,,,,,,,,,,,,,,,,,,,,,,,,,,,,,,,,,,,,,,,
224,Churri,40.3165671,-3.8561473,,,,,bar,,,,,,,,,,,,no,,,,,,,,,,,,,,,,,,,,,,no,no,,,,,,,,,,,,,,,,,,,,,,,,,,,,,,,,,,,,,,,,,,,,,,,,,,,,
225,La Tasca de Lú,40.3679565,-3.488368,,,,,bar,,,,,,,,,,,,,survey,,,,,,,,,,,,,,,,,,,,,,,,,,,,,,,,,,,,,,,,,,,,,,,,,,,,,,,,,,,,,,,,,,,,,,,,,,
226,Lounge Bar Cara Norte,40.729208,-4.0149188,Navacerrada,2,28491.0,Plaza de los Ángeles,bar,,+34 918 42 88 68,,,,,,,,,,,,,,,,,ES,,,,,survey,,,,,,,,,,,,,,,,,,,,,,,,,,,,,,,,,,,,,,,,,,,,,,,,,,,,,,,,,,,,,,,
227,Saramago,40.4259085,-3.5350947,,14,28830.0,Calle de Coslada,bar,,,,yes,,,,,,,,,,,,,,,,,,,,,,,,,,,,,,,,,,,,,,,,,,,,,,,,,,,,,,,,,,,,,,,,,,,,,,,,,,,,,,,,,,,
228,El Santo,40.4281641,-3.6946791,,,,,bar,,,,,,,,,,,,,,,,,,,,,,,,,,,,,,,,,,,,,,,,,,,,,,,,,,,,,,,,,,,,,,,,,,,,,,,,,,,,,,,,,,,,,,,
229,Route 66,40.5035934,-3.5271917,,,,,bar,,,,,,,,,,,,,,,,,,,,,,,,,,,,,,,,,,,,,,,,,,,,,,,,,,,,,,,,,,,,,,,,,,,,,,,,,,,,,,,,,,,,,,,
230,Cafetería Noroeste,40.2868861,-3.7936614,,,,,bar,,,,,,,,,,,,,,,,,,,,,,,,,,,,,,,,,,,,,,,,,,,,,,,,,,,,,,,,,,,,,,,,,,,,,,,,,,,,,,,,,,,,,,,
231,Cervecería Cuzco,40.2883476,-3.7829561,,32,28945.0,Cuzco,bar,,,,,,,,,,,,,,,,,,,,,,,,,,,,,,,,,,,,,,,,,,,,,,,,,,,,,,,,,,,,,,,,,,,,,,,,,,,,,,,,,,,,,,,
232,Cervecería Gráfico,40.2761261,-3.7918927,,2,28944.0,Calle de Fuentetodos,bar,,,,,,,,,,,,,,,,,,,,,,,,,,,,,,,,,,,,,,,,,,,,,,,,,,,,,,,,,,,,,,,,,,,,,,,,,,,,,,,,,,,,,,,
233,Bar Belmonte,40.2783155,-3.7903307,,4,28944.0,Calle de Santa Ana,bar,,,,,,,,,,,,,,,,,,,,,,,,,,,,,,,,,,,,,,,,,,,,,,,,,,,,,,,,,,,,,,,,,,,,,,,,,,,,,,,,,,,,,,,
234,Boise,40.2826428,-3.7928123,Fuenlabrada,16,,Calle de la Plaza,bar,,,,,,,,,,,,,,,,,,,ES,,,,,,,,,,,,,,,,,,,,,,,,,,,,,,,,,,,,,,,,,,,,,,,,,,,,,,,,,,,,,,,,,,,,
235,Cervecería La Herradura,40.2833433,-3.7948293,,,,,bar,,,,,,,,,,,,,,,,,,,,,,,,,,,,,,,,,,,,,,,,,,,,,,,,,,,,,,,,,,,,,,,,,,,,,,,,,,,,,,,,,,,,,,,
236,Cervecería El Cabral,40.287522,-3.7918662,,,,,bar,,,,,,,,,,,,,,,,,,,,,,,,,,,,,,,,,,,,,,,,,,,,,,,,,,,,,,,,,,,,,,,,,,,,,,,,,,,,,,,,,,,,,,,
237,Cervecería El Mirador,40.2856305,-3.7932044,,,,,bar,,,,,,,,,,,,,,,,,,,,,,,,,,,,,,,,,,,,,,,,,,,,,,,,,,,,,,,,,,,,,,,,,,,,,,,,,,,,,,,,,,,,,,,
238,Moonday Tapas,40.2874957,-3.7917563999999997,,,,,bar,,,,,,,,,,,,,,,,,,,,,,,,,,,,,,,,,,,,,,,,,,,,,,,,,,,,,,,,,,,,,,,,,,,,,,,,,,,,,,,,,,,,,,,
239,Señorío de Fuenlabrada,40.2903292,-3.7915771,,,,,bar,,,,,,,,,,,,,,,,,,,,,,,,,,,,,,,,,,,,,,,,,,,,,,,,,,,,,,,,,,,,,,,,,,,,,,,,,,,,,,,,,,,,,,,
240,Bar El Españolito,40.2925089,-3.7913888,,,,,bar,,,,,,,,,,,,,,,,,,,,,,,,,,,,,,,,,,,,,,,,,,,,,,,,,,,,,,,,,,,,,,,,,,,,,,,,,,,,,,,,,,,,,,,
241,Bar Coyote,40.2825661,-3.792216,,,,,bar,,,,,,,,,,,,,,,,,,,,,,,,,,,,,,,,,,,,,,,,,,,,,,,,,,,,,,,,,,,,,,,,,,,,,,,,,,,,,,,,,,,,,,,
242,Cervecería La Posada,40.2825242,-3.7921139999999998,,,,,bar,,,,,,,,,,,,,,,,,,,,,,,,,,,,,,,,,,,,,,,,,,,,,,,,,,,,,,,,,,,,,,,,,,,,,,,,,,,,,,,,,,,,,,,
243,Bar de Copas Planeta,40.2830088,-3.791801,,,,,bar,,,,,,,,,,,,,,,,,,,,,,,,,,,,,,,,,,,,,,,,,,,,,,,,,,,,,,,,,,,,,,,,,,,,,,,,,,,,,,,,,,,,,,,
244,Bar Mahal,40.2831873,-3.7925098,,,,,bar,,,,,,,,,,,,,,,,,,,,,,,,,,,,,,,,,,,,,,,,,,,,,,,,,,,,,,,,,,,,,,,,,,,,,,,,,,,,,,,,,,,,,,,
245,,40.2825833,-3.7923375999999998,,,,,bar,,,,,,,,,,,,,,,,,,,,,,,,,,,,,,,,,,,,,,,,,,,,,,,,,,,,,,,,,,,,,,,,,,,,,,,,,,,,,,,,,,,,,,,
246,Bar El Arroyo,40.2766627,-3.80039,,,,,bar,,,,,,,,,,,,,,,,,,,,,,,,,,,,,,,,,,,,,,,,,,,,,,,,,,,,,,,,,,,,,,,,,,,,,,,,,,,,,,,,,,,,,,,
247,Bar Monje,40.2767458,-3.7989815,,,,,bar,,,,,,,,,,,,,,,,,,,,,,,,,,,,,,,,,,,,,,,,,,,,,,,,,,,,,,,,,,,,,,,,,,,,,,,,,,,,,,,,,,,,,,,
248,Bar Extremeño,40.2768704,-3.8009355,,,,,bar,,,,,,,,,,,,,,,,,,,,,,,,,,,,,,,,,,,,,,,,,,,,,,,,,,,,,,,,,,,,,,,,,,,,,,,,,,,,,,,,,,,,,,,
249,Bar Nieto,40.2770225,-3.8001854,,,,,bar,,,,,,,,,,,,,,,,,,,,,,,,,,,,,,,,,,,,,,,,,,,,,,,,,,,,,,,,,,,,,,,,,,,,,,,,,,,,,,,,,,,,,,,
250,Bar Sol,40.2773191,-3.8002219,,,,,bar,,,,,,,,,,,,,,,,,,,,,,,,,,,,,,,,,,,,,,,,,,,,,,,,,,,,,,,,,,,,,,,,,,,,,,,,,,,,,,,,,,,,,,,
251,Mesón Barquero,40.2781178,-3.8003004,,,,,bar,,,,,,,,,,,,,,,,,,,,,,,,,,,,,,,,,,,,,,,,,,,,,,,,,,,,,,,,,,,,,,,,,,,,,,,,,,,,,,,,,,,,,,,
252,Bar Miraflor,40.2781413,-3.8000846,,,,,bar,,,,,,,,,,,,,,,,,,,,,,,,,,,,,,,,,,,,,,,,,,,,,,,,,,,,,,,,,,,,,,,,,,,,,,,,,,,,,,,,,,,,,,,
253,Bar Manolo,40.2782967,-3.8001145,,,,,bar,,,,,,,,,,,,,,,,,,,,,,,,,,,,,,,,,,,,,,,,,,,,,,,,,,,,,,,,,,,,,,,,,,,,,,,,,,,,,,,,,,,,,,,
254,Los Pecaitos,40.6201764,-4.0047544,,,,,bar,,,,,,,,,,,,,,,,,,,,,,,,,,,,,,,,,,,,,,,,,,,,,,,,,,,,,,,,,,,,,,,,,,,,,,,,,,,,,,,,,,,,,,,
255,Cafetería Bienmesabe,40.622506,-4.0049427,,,,,bar,,,,,,,,,,,,,,,,,,,,,,,,,,,,,,,,,,,,,,,,,,,,,,,,,,,,,,,,,,,,,,,,,,,,,,,,,,,,,,,,,,,,,,,
256,Bar Castilla,40.2767798,-3.7972735,Fuenlabrada,3,28944.0,Calle del Higueral,bar,,,,,,,,,,,,,,,,,,,ES,,,,,,,,,,,,,,,,,,,,,,,,,,,,,,,,,,,,,,,,,,,,,,,,,,,,,,,,,,,,,,,,,,,,
257,Cervecería Rocío,40.2804981,-3.7972621,Fuenlabrada,6,28944.0,Calle de Lourdes,bar,,,,,,,,,,,,,,,,,,,ES,,,,,,,,,,,,,,,,,,,,,,,,,,,,,,,,,,,,,,,,,,,,,,,,,,,,,,,,,,,,,,,,,,,,
258,Bar Granada,40.2862053,-3.8061501,,,28943.0,,bar,,,,,,,,,,,,,,,,,,,,,,,no,,,,,,,,,,,,,,,,,,,,,,,,,,,,,,,,,,,,,,,,,,,,,,,,,,,,,,,,,,,,,,,,
259,Bar Restaurante La Santa Sed,40.2822501,-3.7938037,,,,,bar,,,,,,,,,,,,,,,,,,,,,,,yes,,,,,,,,,,,,,,,,,,,,,,,,,,,,,,,,,,,,,,,,,,,,,,,,,,,,,,,,,,,,,,,,
260,Bar Romero,40.3008669,-3.8167882,,,,Calle del Sauce,bar,,,,,,,,,,,,,,,,,,,,,,,yes,,,,,,,,,,,,,,,,,,,,,,,,,,,,,,,,,,,,,,,,,,,,,,,,,,,,,,,,,,,,,,,,
261,,40.4152479,-3.6737306,,,,,bar,,,,,,,,,,,,,,,,,,,,,,,,,,,,,,,,,,,,,,,,,,,,,,,,,,,,,,,,,,,,,,,,,,,,,,,,,,,,,,,,,,,,,,,
262,,40.4152551,-3.673572,,,,,bar,,,,,,,,,,,,,,,,,,,,,,,,,,,,,,,,,,,,,,,,,,,,,,,,,,,,,,,,,,,,,,,,,,,,,,,,,,,,,,,,,,,,,,,
263,Bar Preciados,40.2812539,-3.7966054,Fuenlabrada,2,28944.0,Calle de Madrid,bar,,,,,,,,,,,,,,,,,,,ES,,,,,,,,,,,,,,,,,,,,,,,,,,,,,,,,,,,,,,,,,,,,,,,,,,,,,,,,,,,,,,,,,,,,
264,Los Chicos,40.3726098,-3.6209503,,,,,bar,,,,,,,,,,,,,,,,,,,,,,,,,,,,,,,,,,,,,,,,,,,,,,,,,,,,,,,,,,,,,,,,,,,,,,,,,,,,,,,,,,,,,,,
265,Bar Canalejas,40.3734517,-3.6226347,,,,,bar,,,,,,,,,,,,,,,,,,,,,,,,,,,,,,,,,,,,,,,,,,,,,,,,,,,,,,,,,,,,,,,,,,,,,,,,,,,,,,,,,,,,,,,
266,Fuxion,40.2806419,-3.7934091,,,,,bar,,,,,,,,,,,,,,,,,,,,,,,,,,,,,,,,,,,,,,,,,,,,,,,,,,,,,,,,,,,,,,,,,,,,,,,,,,,,,,,,,,,,,,,
267,Parador D'Guille,40.2816083,-3.7922594,,,,,bar,,,,,,,,,,,,,,,,,,,,,,,,,,,,,,,,,,,,,,,,,,,,,,,,,,,,,,,,,,,,,,,,,,,,,,,,,,,,,,,,,,,,,,,
268,Cervecería Aranda II,40.2810373,-3.7873967,,,,,bar,,,,,,,,,,,,,,,,,,,,,,,,,,,,,,,,,,,,,,,,,,,,,,,,,,,,,,,,,,,,,,,,,,,,,,,,,,,,,,,,,,,,,,,
269,Bar Artes,40.281376,-3.7901655,,,,,bar,,,,,,,,,,,,,,,,,,,,,,,,,,,,,,,,,,,,,,,,,,,,,,,,,,,,,,,,,,,,,,,,,,,,,,,,,,,,,,,,,,,,,,,
270,Bar El Coyote,40.2817194,-3.7906414,,,,,bar,,,,,,,,,,,,,,,,,,,,,,,,,,,,,,,,,,,,,,,,,,,,,,,,,,,,,,,,,,,,,,,,,,,,,,,,,,,,,,,,,,,,,,,
271,Taberna Scala,40.2795234,-3.7906219,Fuenlabrada,40,28944.0,Calle de Extremadura,bar,,+34910 27 90 64,,,,,,,,,,,,,,,,,,,,,,,,,,,,,,,,,,,,,,,,,,,,,,,,,,,,,,,,,,,,,,,,,,,,,,,,,,,,,,,,,,,,,
272,El Corrillo,40.2818536,-3.7925165,,,,,bar,,,,,,,,,,,,,,,,,,,,,,,,,,,,,,,,,,,,,,,,,,,,,,,,,,,,,,,,,,,,,,,,,,,,,,,,,,,,,,,,,,,,,,,
273,Juvenal,40.280264,-3.7925950999999998,,,,,bar,,,,,,,,,,,,,,,,,,,,,,,,,,,,,,,,,,,,,,,,,,,,,,,,,,,,,,,,,,,,,,,,,,,,,,,,,,,,,,,,,,,,,,,
274,Los Gavilanes,40.281897,-3.7926772,,,,,bar,,,,,,,,,,,,,,,,,,,,,,,,,,,,,,,,,,,,,,,,,,,,,,,,,,,,,,,,,,,,,,,,,,,,,,,,,,,,,,,,,,,,,,,
275,Los Ángeles,40.2841668,-3.7961456,,,,,bar,,,,,,,,,,,,,,,,,,,,,,,,,,,,,,,,,,,,,,,,,,,,,,,,,,,,,,,,,,,,,,,,,,,,,,,,,,,,,,,,,,,,,,,
276,Escolar,40.2844158,-3.7954944,,,,,bar,,,,,,,,,,La Partida,,,,,,,,,,,,,,,,,,,,,,,,,,,,,,,,,,,,,,,,,,,,,,,,,,,,,,,,,,,,,,,,,,,,,,,,,,,,,
277,Bar Marbella,40.2849639,-3.7953357,,,,,bar,,,,,,,,,,,,,,,,,,,,,,,,,,,,,,,,,,,,,,,,,,,,,,,,,,,,,,,,,,,,,,,,,,,,,,,,,,,,,,,,,,,,,,,
278,Bar San Antonio,40.2853597,-3.7953611,,,,,bar,,,,,,,,,,,,,,,,,,,,,,,,,,,,,,,,,,,,,,,,,,,,,,,,,,,,,,,,,,,,,,,,,,,,,,,,,,,,,,,,,,,,,,,
279,Bar Cervecería First Class,40.2872286,-3.7946863,,,,,bar,,,,,,,,,,,,,,,,,,,,,,,,,,,,,,,,,,,,,,,,,,,,,,,,,,,,,,,,,,,,,,,,,,,,,,,,,,,,,,,,,,,,,,,
280,Bar Los Hermanos,40.2862047,-3.795152,,,,,bar,,,,,,,,,,,,,,,,,,,,,,,,,,,,,,,,,,,,,,,,,,,,,,,,,,,,,,,,,,,,,,,,,,,,,,,,,,,,,,,,,,,,,,,
281,Mesón El Cazador,40.2855171,-3.7953064,,,,,bar,,,,,,,,,,,,,,,,,,,,,,,,,,,,,,,,,,,,,,,,,,,,,,,,,,,,,,,,,,,,,,,,,,,,,,,,,,,,,,,,,,,,,,,
282,Bel Canto,40.4272704,-3.6660966,,,,,bar,,,,,,,,,,,,,,,,,,,,,,,,,,,,,,,,,,,,,,,,,,,,,,,,,,,,,,,,,,,,,,,,,,,,,,,,,,,,,,,,,,,,,,,
283,Bar Bleda,40.2880711,-3.7938763,,,,,bar,,,,,,,,,,,,,,,,,,,,,,,,,,,,,,,,,,,,,,,,,,,,,,,,,,,,,,,,,,,,,,,,,,,,,,,,,,,,,,,,,,,,,,,
284,Cervecería La Puebla,40.2891392,-3.7928597,,,,,bar,,,,,,,,,,,,,,,,,,,,,,,,,,,,,,,,,,,,,,,,,,,,,,,,,,,,,,,,,,,,,,,,,,,,,,,,,,,,,,,,,,,,,,,
285,Lucky Bar,40.2891757,-3.7931025,,,,,bar,,,,,,,,,,,,,,,,,,,,,,,,,,,,,,,,,,,,,,,,,,,,,,,,,,,,,,,,,,,,,,,,,,,,,,,,,,,,,,,,,,,,,,,
286,Cherokee,40.4279774,-3.7003554,Madrid,15,28004.0,Calle de Larra,bar,,,,,https://www.facebook.com/pages/Cherokee/118207424912601,+34 650 70 16 92,,,,,,,,,,,,,,,,,,,,,,,,,,,,,,,,,,,,,,,,,,,,,,,,,,,,,,,,,,,,,,,,,,,,,,,,,,,,,,,,,
287,4 Faroles,40.3854418,-3.715503,,,,,bar,,,,,,,,,,,,,,,,,,,,,,,,,,,,,,,,,,,,,,,,,,,,,,,,,,,,,,,,,,,,,,,,,,,,,,,,,,,,,,,,,,,,,,,
288,La bodega,40.3855707,-3.7152876,,,,,bar,,,,,,,,,,,,,,,,,,,,,,,,,,,,,,,,,,,,,,,,,,,,,,,,,,,,,,,,,,,,,,,,,,,,,,,,,,,,,,,,,,,,,,,
289,Bar Justi,40.3855586,-3.7147683000000002,,,,,bar,,,,,,,,,,,,,,,,,,,,,,,,,,,,,,,,,,,,,,,,,,,,,,,,,,,,,,,,,,,,,,,,,,,,,,,,,,,,,,,,,,,,,,,
290,Lagartijo,40.3854676,-3.7143645,,,,,bar,,,,,,,,,,,,,,,,,,,,,,,,,,,,,,,,,,,,,,,,,,,,,,,,,,,,,,,,,,,,,,,,,,,,,,,,,,,,,,,,,,,,,,,
291,Los Cortitos,40.3854617,-3.7138743,,,,,bar,,,,,,,,,,,,,,,,,,,,,,,,,,,,,,,,,,,,,,,,,,,,,,,,,,,,,,,,,,,,,,,,,,,,,,,,,,,,,,,,,,,,,,,
292,Los olmos,40.468705,-3.7229891999999998,,,,,bar,,,,,,,,,,,,,,,,,,,,,,,,,,,,,,,,,,,,,,,,,,,,,,,,,,,,,,,,,,,,,,,,,,,,,,,,,,,,,,,,,,,,,,,
293,Bar Villamadrid,40.4703382,-3.722748,Madrid,54,28035.0,Avenida Juan Andrés,bar,,,,,,,,,,,,,,,,,,,,,,,,,,,,,,,,,,,,,,,,,,,,,,,,,,,,,,,,,,,,,,,,,,,,,,,,,,,,,,,,,,,,,,,
294,Cervecería Museo,40.2949174,-3.791527,,,,,bar,,,,,,,,,,,,,,,,,,,,,,,,,,,,,,,,,,,,,,,,,,,,,,,,,,,,,,,,,,,,,,,,,,,,,,,,,,,,,,,,,,,,,,,
295,Bar,40.2958865,-3.7922944,,,,,bar,,,,,,,,,,,,,,,,,,,,,,,,,,,,,,,,,,,,,,,,,,,,,,,,,,,,,,,,,,,,,,,,,,,,,,,,,,,,,,,,,,,,,,,
296,El Bodegón,40.4660446,-3.7206816,,6,28035.0,Calle San Gerardo,bar,,,,,,,,,,,,,,,,,,,,,,,,,,,,,,,,,,,,,,,,,,,,,,,,,,,,,,,,,,,,,,,,,,,,,,,,,,,,,,,,,,,,,,,
297,El Rincón,40.4660127,-3.7205262,,6,28035.0,Calle San Gerardo,bar,,,,,,,,,,,,,,,,,,,,,,,,,,,,,,,,,,,,,,,,,,,,,,,,,,,,,,,,,,,,,,,,,,,,,,,,,,,,,,,,,,,,,,,
298,Bar Oliva,40.2874207,-3.7926868,,,,,bar,,,,,,,,,,,,,,,,,,,,,,,,,,,,,,,,,,,,,,,,,,,,,,,,,,,,,,,,,,,,,,,,,,,,,,,,,,,,,,,,,,,,,,,
299,Cervecería Cruz Blanca,40.2890022,-3.7937212000000002,,,,,bar,,,,,,,,,,,,,,,,,,,,,,,,,,,,,,,,,,,,,,,,,,,,,,,,,,,,,,,,,,,,,,,,,,,,,,,,,,,,,,,,,,,,,,,
300,Chevere,40.2890052,-3.7934633,,,,,bar,,,,,,,,,,,,,,,,,,,,,,,,,,,,,,,,,,,,,,,,,,,,,,,,,,,,,,,,,,,,,,,,,,,,,,,,,,,,,,,,,,,,,,,
301,Cervecería Lamar,40.4163314,-3.5730996,,,,,bar,,,,,,,,,,,,,,,,,,,,,,,,,,,,,,,,,,,,,,,,,,,,,,,,,,,,,,,,,,,,,,,,,,,,,,,,,,,,,,,,,,,,,,,
302,La Esquinita,40.4193907,-3.5707142,,,,,bar,,,,,,,,,,,,,,,,,,,,,,,,,,,,,,,,,,,,,,,,,,,,,,,,,,,,,,,,,,,,,,,,,,,,,,,,,,,,,,,,,,,,,,,
303,Bar de Copas Capricho,40.2941756,-3.7914455,,,,,bar,,,,,,,,,,,,,,,,,,,,,,,,,,,,,,,,,,,,,,,,,,,,,,,,,,,,,,,,,,,,,,,,,,,,,,,,,,,,,,,,,,,,,,,
304,Belgius,40.2929157,-3.7914824,,,,,bar,,,,,,,,,,,,,,,,,,,,,,,,,,,,,,,,,,,,,,,,,,,,,,,,,,,,,,,,,,,,,,,,,,,,,,,,,,,,,,,,,,,,,,,
305,Enebro Tapas Bar,40.2931068,-3.7912669,,,,,bar,,,,,,,,,,,,,,,,,,,,,,,,,,,,,,,,,,,,,,,,,,,,,,,,,,,,,,,,,,,,,,,,,,,,,,,,,,,,,,,,,,,,,,,
306,Warhol Lounge Café,40.2932429,-3.7911242,,,,,bar,,,,,,,,,,,,,,,,,,,,,,,,,,,,,,,,,,,,,,,,,,,,,,,,,,,,,,,,,,,,,,,,,,,,,,,,,,,,,,,,,,,,,,,
307,La esquina de Eusebio,40.4122199,-3.7270647,,16,28011.0,Calle de Caramuel,bar,,,,,,,,,,,,,,,,,,,,,,,,,,,,,,,,,,,,,,,,,,,,,,,,,,,,,,,,,,,,,,,,,,,,,,,,,,,,,,,,,,,,,,,
308,Torrepista,40.4645847,-3.4799452,,,,,bar,,,,,,,,,,,,,survey,,,,,,,,,,,,,,,,,,,,,,,,,,,,,,,,,,,,,,,,,,,,,,,,,,,,,,,,,,,,,,,,,,,,,,,,,,
309,Bar Castillo,40.2878545,-3.7924942,,,,,bar,,,,,,,,,,,,,,,,,,,,,,,,,,,,,,,,,,,,,,,,,,,,,,,,,,,,,,,,,,,,,,,,,,,,,,,,,,,,,,,,,,,,,,,
310,Bar Grillo,40.2945002,-3.7855945,Fuenlabrada,30,28945.0,Avenida de los Andes,bar,,,,,,,,,,,,,,,,,,,,,,,,,,,,,,,,,,,,,,,,,,,,,,,,,,,,,,,,,,,,,,,,,,,,,,,,,,,,,,,,,,,,,,,
311,Bar Basilio,40.2948505,-3.7848851999999997,,,,,bar,,,,,,,,,,,,,,,,,,,,,,,,,,,,,,,,,,,,,,,,,,,,,,,,,,,,,,,,,,,,,,,,,,,,,,,,,,,,,,,,,,,,,,,
312,Bar El Parque,40.2941747,-3.7850305,,,,,bar,,,,,,,,,,,,,,,,,,,,,,,,,,,,,,,,,,,,,,,,,,,,,,,,,,,,,,,,,,,,,,,,,,,,,,,,,,,,,,,,,,,,,,,
313,Cervecería Callao,40.2939139,-3.7853823,,,,,bar,,,,,,,,,,,,,,,,,,,,,,,,,,,,,,,,,,,,,,,,,,,,,,,,,,,,,,,,,,,,,,,,,,,,,,,,,,,,,,,,,,,,,,,
314,Bar Marpil,40.4650762,-3.7214633,,,,,bar,,,,,,,,,,,,,,,,,,,,,,,,,,,,,,,,,,,,,,,,,,,,,,,,,,,,,,,,,,,,,,,,,,,,,,,,,,,,,,,,,,,,,,,
315,Bar Matins,40.4671891,-3.7218755999999997,,,,,bar,,,,,,,,,,,,,,,,,,,,,,,,,,,,,,,,,,,,,,,,,,,,,,,,,,,,,,,,,,,,,,,,,,,,,,,,,,,,,,,,,,,,,,,
316,Bar Maype,40.4694307,-3.7215078999999998,,,,,bar,,,,,,,,,,,,,,,,,,,,,,,,,,,,,,,,,,,,,,,,,,,,,,,,,,,,,,,,,,,,,,,,,,,,,,,,,,,,,,,,,,,,,,,
317,El chiringuito,40.4207921,-3.7041564,,3,,Travesía del Horno de la Mata,bar,,,,,,,,,,,,,,,,,,,,,,,free,,,,,,,,,,,,,,,,,,,,,,,,,,,,,,,,,,,,,,,,,,,,,,,,,,,,,,,,,,,,,,,,
318,Bar El Piropo,40.467077,-3.7241329,,,,,bar,,,,,,,,,,,,,,,,,,,,,,,,,,,,,,,,,,,,,,,,,,,,,,,,,,,,,,,,,,,,,,,,,,,,,,,,,,,,,,,,,,,,,,,
319,Bar El Plane,40.4660934,-3.7190795999999997,,14,,Calle de Antonio Machado,bar,,,,,,,,,,,,,,,,,,,,,,,,,,,,,,,,,,,,,,,,,,,,,,,,,,,,,,,,,,,,,,,,,,,,,,,,,,,,,,,,,,,,,,,
320,Bar El Gamo,40.4673212,-3.7172837,,,,,bar,,,,,,,,,,,,,,,,,,,,,,,,,,,,,,,,,,,,,,,,,,,,,,,,,,,,,,,,,,,,,,,,,,,,,,,,,,,,,,,,,,,,,,,
321,,40.4900377,-3.8839238,,,,,bar,,,,,,,,,,,,,,,,,,,,,,,,,,,,,,,,,,,,,,,,,,,,,,,,,,,,,,,,,,,,,,,,,,,,,,,,,,,,,,,,,,,,,,,
322,Cervecería Manhattan,40.2924951,-3.7854258,,,,,bar,,,,,,,,,,,,,,,,,,,,,,,,,,,,,,,,,,,,,,,,,,,,,,,,,,,,,,,,,,,,,,,,,,,,,,,,,,,,,,,,,,,,,,,
323,El Capricho,40.6003743,-3.7116192999999997,Tres Cantos,,28760.0,Calle del Comercio,bar,,,,,,,,,,,,,,,,,,,,,,,,,,,,,,,,,,,,,,,,,,,,,,,,,,,,,,,,,,,,,,,,,,,,,,,,,,,,,,,,,,,,,,,
324,Chic Pepe's,40.3880427,-3.7655914,,,,,bar,,,,,,,,,,,,,,,,,,,,,,,,,,,,,,,,,,,,,,,,,,,,,,,,,,,,,,,,,,,,,,,,,,,,,,,,,,,,,,,,,,,,,,,
325,Trujal,40.4436664,-3.7142092,,,,,bar,,,,limited,,,,,,,,,,,,,,,,no,,,,,,,,,,,,,,,,,,,,,,,,,,,,,,,,,,,,,,,,,,,,,,,,,,,,,,,,,,,,,,,,,,,
326,,40.4434665,-3.7142437,,,,,bar,,,,,,,,,,,,,,,,,,,,,,,,,,,,,,,,,,,,,,,,,,,,,,,,,,,,,,,,,,,,,,,,,,,,,,,,,,,,,,,,,,,,,,,
327,Higuera,40.4528753,-3.5095862,,1,28830.0,Avenida de Castilla,bar,,,,,,+34 916750250,,,,,,,,spanish,,,,,,,,,,,,,,,,,,,,,,,,,,,,,,,,,,,,,,,,,,,,,,,,,,,,,,,,,,,,,,,,,,,,,,,,,
328,Bodega,40.3940213,-3.7569378,,,,,bar,,,,,,,,,,,,,,,,,,,,,,,,,,,,,,,,,,,,,,,,,,,,,,,,,,,,,,,,,,,,,,,,,,,,,,,,,,,,,,,,,,,,,,,
329,Carolina,40.4777186,-3.3620842,,,,,bar,,,,,,,,,,,,,,,,,,,,,,,,,,,,,,,,,,,,,,,,,,,,,,,,,,,,,,,,,,,,,,,,,,,,,,,,,,,,,,,,,,,,,,,
330,Los Alares,40.478183,-3.3623709,,,,,bar,,,,,,,,,,Dorinda,,,,,,,,,,,,,,,,,,,,,,,,,,,,,,,,,,,,,,,,,,,,,,,,,,,,,,,,,,,,,,,,,,,,,,,,,,,,,
331,Andeva,40.4781078,-3.3629762,,,,,bar,,,,,,,,,,El Albero,,,,,,,,,,,,,,,,,,,,,,,,,,,,,,,,,,,,,,,,,,,,,,,,,,,,,,,,,,,,,,,,,,,,,,,,,,,,,
332,Las Flores,40.4781501,-3.3628995,,,,,bar,,,,,,,,,,,,,,,,,,,,,,,,,,,,,,,,,,,,,,,,,,,,,,,,,,,,,,,,,,,,,,,,,,,,,,,,,,,,,,,,,,,,,,,
333,La Bicicleta,40.483637,-3.3692712,,,,,bar,,,,,,,,,,La Amistad,,,,,,,,,,,,,,,,,,,,,,,,,,,,,,,,,,,,,,,,,,,,,,,,,,,,,,,,,,,,,,,,,,,,,,,,,,,,,
334,La Parra,40.4836704,-3.3690585,,,,,bar,,,,,,,,,,,,,,,,,,,,,,,,,,,,,,,,,,,,,,,,,,,,,,,,,,,,,,,,,,,,,,,,,,,,,,,,,,,,,,,,,,,,,,,
335,Marbella,40.4777469,-3.370343,,,,,bar,,,,,,,,,,,,,,,,,,,,,,,,,,,,,,,,,,,,,,,,,,,,,,,,,,,,,,,,,,,,,,,,,,,,,,,,,,,,,,,,,,,,,,,
336,La Cava,40.4775836,-3.3672141,,,,,bar,,,,,,,,,,,,,,,,,,,,,,,,,,,,,,,,,,,,,,,,,,,,,,,,,,,,,,,,,,,,,,,,,,,,,,,,,,,,,,,,,,,,,,,
337,Lounge drink La Corrala,40.4785458,-3.3685471,,,,,bar,,,,yes,,,,,,,,,,,,,,,,no,,,,,,,,,,,,,,,,,,,,,,,,,,,,,,,,,,,,,,,,,,,,,,,,,,,,,,,,,,,,,,,,,,,
338,Mushka,40.4809511,-3.3669538,,,,,bar,,,,,,,,,,,,,,,,,,,,,,,,,,,,,,,,,,,,,,,,,,,,,,,,,,,,,,,,,,,,,,,,,,,,,,,,,,,,,,,,,,,,,,,
339,OH! Lounge Bar,40.4805879,-3.3643625,,,,,bar,,,,,,,,,,,,,,,,,,,,,,,,,,,,,,,,,,,,,,,,,,,,,,,,,,,,,,,,,,,,,,,,,,,,,,,,,,,,,,,,,,,,,,,
340,Los Bocadillos,40.4304023,-3.7165205,,,,,bar,,,,,,,,,,,,,,,,,,,,,,Bar,,,,,,,,,,,,,,,,,,,,,,,,,,,,,,,,,,,,,,,,,,,,,,,,,,,,,,,,,,,,,,,,,
341,El Pintxito,40.4010055,-3.7505550999999997,,,,,bar,,,,,,,,,,,,,,,,,,,,,,,,,,,,,,,,,,,,,,,,,,,,,,,,,,,,,,,,,,,,,,,,,,,,,,,,,,,,,,,,,,,,,,,
342,Bulevar,40.4262987,-3.6966342,Madrid,2,28004.0,Calle de Santa Teresa,bar,,,www.bulevarmadridnocrisis.com,,,,,,,,,,survey,,,,,,,,,,,,,,,,,,,,Justicia,,,,,,,,,,,,,,,,,,,,,,,,,,,,,,,,,,,,,,,,,,,,,,,,,,,,,,
343,Bar Pascual,40.4112999,-3.7140551,,,,,bar,,,,,,,,,,,,,,,,,,,,,,,,,,,,,,,,,,,,,,,,,,,,,,,,,,,,,,,,,,,,,,,,,,,,,,,,,,,,,,,,,,,,,,,
344,El Bombón,40.4120853,-3.7118215,Madrid,2,28005.0,Calle de los Mancebos,bar,,,,,https://es-es.facebook.com/elbombonmadrid/,+34 910 85 46 41,,,,Stork,,,,,,,,,,,,,,,,,,,,,,,,,,,,,,,,,,,,,,,,,,,,,,,,,,,,,,,,,,,,,,,,,,,,,,,,,,,,,
345,Argentina,40.4273324,-3.5459155,,,,,bar,,,,,,,,,,,,,,,,,,,,,,,,,,,,,,,,,,,,,,,,,,,,,,,,,,,,,,,,,,,,,,,,,,,,,,,,,,,,,,,,,,,,,,,
346,809,40.4565613,-3.7039051,,,,Calle de Berruguete,bar,,,,no,,,,,,,,,,,,,,,,,,,,,,,,,,,,,,,,,,,,,,,,,,,,,,,,,,,,,,,,,,,,,,,,,,,,,,,,,,,,,,,,,,,
347,La Peseta,40.3626869,-3.7579791,,,,,bar,,,,,,,,,,,,,,,,,,,,,,,,,,,,,,,,,,,,,,,,,,,,,,,,,,,,,,,,,,,,,,,,,,,,,,,,,,,,,,,,,,,,,,,
348,Tapas La Tabla,40.3613605,-3.757743,,,,,bar,,,,,,,,,,,,,,,,,,,,,,,,,,,,,,,,,,,,,,,,,,,,,,,,,,,,,,,,,,,,,,,,,,,,,,,,,,,,,,,,,,,,,,,
349,Vía Libre,40.3622577,-3.7594488999999998,,,,,bar,,,,,,,,,,,,,,,,,,,,,,,,,,,,,,,,,,,,,,,,,,,,,,,,,,,,,,,,,,,,,,,,,,,,,,,,,,,,,,,,,,,,,,,
350,Mejor Imposible,40.3618919,-3.7527112,,,,,bar,,,,,,,,,,Meihua,,,,,,,,,,,,,,,,,,,,,,,,,,,,,,,,,,,,,,,,,,,,,,,,,,,,,,,,,,,,,,,,,,,,,,,,,,,,,
351,Casa Paola,40.3622189,-3.749286,,,,,bar,,,,,,,,,,,,,,,,,,,,,,,,,,,,,,,,,,,,,,,,,,,,,,,,,,,,,,,,,,,,,,,,,,,,,,,,,,,,,,,,,,,,,,,
352,ADC,40.4231149,-3.7044312,Madrid,8,28004.0,Calle del Pez,bar,,,,,https://es-es.facebook.com/adcbar/,,,,,,,,survey,,,,,,,,,,,,,,,,,,,,,,,,,,,,,,,,,,,,,,,,,,,,,,,,,,,,,,,,,,,,,,,,,,,,,,,,,,
353,Las Tres Jotas,40.4624346,-3.468652,,,,,bar,,,,,,,,,,,,,survey,,,,,,,,,,,,,,,,,,,,,,,,,,,,,,,,,,,,,,,,,,,,,,,,,,,,,,,,,,,,,,,,,,,,,,,,,,
354,Bar José,40.2879376,-3.7890108,,,,,bar,,,,,,,,,,,,,,,,,,,,,,,,,,,,,,,,,,,,,,,,,,,,,,,,,,,,,,,,,,,,,,,,,,,,,,,,,,,,,,,,,,,,,,,
355,Tu Casa,40.4562629,-3.4484677,,,,,bar,,,,,,,,,,,,,survey,,,,,,,,,,,,,,,,,,,,,,,,,,,,,,,,,,,,,,,,,,,,,,,,,,,,,,,,,,,,,,,,,,,,,,,,,,
356,Cervecería Ondarreta,40.4209088,-3.529879,,,28830.0,Plaza de Ondarreta,bar,,,,,,,,,,,,,,,,,,,ES,,,,,,,,,,,,,,,,,,,,,,,,,,,,,,,,,,,,,,,,,,,,,,,,,,,,,,,,,,,,,,,,,,,,
357,La Pinta,40.4210088,-3.5310506,,,28830.0,Plaza de Ondarreta,bar,,,,,,,,,,,,,,,,,,,ES,,,,,,,,,,,,,,,,,,,,,,,,,,,,,,,,,,,,,,,,,,,,,,,,,,,,,,,,,,,,,,,,,,,,
358,Bar Galicia,40.4211357,-3.5325296,,,,,bar,,,,,,,,,,,,,,,,,,,,,,,,,,,,,,,,,,,,,,,,,,,,,,,,,,,,,,,,,,,,,,,,,,,,,,,,,,,,,,,,,,,,,,,
359,Aurora,40.4222145,-3.5336027,,7,28830.0,Avenida de Enrique Tierno Galván,bar,,,,,,,,,,,,,,,,,,,,,,,,,,,,,,,,,,,,,,,,,,,,,,,,,,,,,,,,,,,,,,,,,,,,,,,,,,,,,,,,,,,,,,,
360,La Espuela,40.4211243,-3.5331902,,11,28830.0,Calle de la Solana,bar,,,,no,,,,,,,,,,,,,,,,,,,,,,,,,,,,,,,,,,,,,,,,,,,,,,,,,,,,,,,,,,,,,,,,,,,,,,,,,,,,,,,,,,,
361,Bar Jose,40.4223337,-3.5331869,,,,,bar,,,,,,,,,,,,,,,,,,,,,,,,,,,,,,,,,,,,,,,,,,,,,,,,,,,,,,,,,,,,,,,,,,,,,,,,,,,,,,,,,,,,,,,
362,Bar Simsom,40.4240934,-3.5327514,,1,28830.0,Carretera de San Fernando a Mejorada,bar,,,,limited,,,,,,,,,,,,,,,,,,,,,,,,,,,,,,,,,,,,,,,,,,,,,,,,,,,,,,,,,,,,,,,,,,,,,,,,,,,,,,,,,,,
363,Monjia,40.4240212,-3.5330428,,,,,bar,,,,,,,,,,,,,,,,,,,,,,,free,,,,,,,,,,,,,,,,,,,,,,,,,,,,,,,,,,,,,,,,,,,,,,,,,,,,,,,,,,,,,,,,
364,Sidrería La Posada,40.4253928,-3.5327405,,,28830.0,Calle Libertad,bar,,,,,,+34 916723065,,,,,,,,,,,,,,,,,,,,,,,,,,,,,,,,,,,,,,,,,,,,,,,,,,,,,,,,,,,,,,,,,,,,,,,,,,,,,,,,,
365,Riber,40.4246971,-3.5330477,,28,28830.0,Avenida de la Constitución,bar,,,,,,,,,,,,,,,,,,,,,,,,,,,,,,,,,,,,,,,,,,,,,,,,,,,,,,,,,,,,,,,,,,,,,,,,,,,,,,,,,,,,,,,
366,Todo Ibérico,40.4253498,-3.5329454,,7,28830.0,Calle Libertad,bar,,,,,,+34 916723065,,,,,,,,,,,,,,,,,,,,,,,,,,,,,,,,,,,,,,,,,,,,,,,,,,,,,,,,,,,,,,,,,,,,,,,,,,,,,,,,,
367,,40.4258222,-3.5328036,,,28830.0,,bar,,,,,,,,,,,,,,,,,,,,,,,,,,,,,,,,,,,,,,,,,,,,,,,,,,,,,,,,,,,,,,,,,,,,,,,,,,,,,,,,,,,,,,,
368,El Globo Rojo,40.4266778,-3.5360842,,,,,bar,,,,,,,,,,,,,,,,,,,,,,,,,,,,,,,,,,,,,,,,,,,,,,,,,,,,,,,,,,,,,,,,,,,,,,,,,,,,,,,,,,,,,,,
369,El Leonés,40.4287235,-3.5360187,,,28830.0,,bar,,,,no,,,,,,,,,,,,,,,,,,,,,,,,,,,,,,,,,,,,,,,,,,,,,,,,,,,,,,,,,,,,,,,,,,,,,,,,,,,,,,,,,,,
370,Oasis,40.4284945,-3.5346018,,5,28830.0,Calle de Salamanca,bar,,,,,,,,,,,,,,,,,,,,,,,,,,,,,,,,,,,,,,,,,,,,,,,,,,,,,,,,,,,,,,,,,,,,,,,,,,,,,,,,,,,,,,,
371,Badajoz,40.4289704,-3.5356559,,,28830.0,,bar,,,,limited,,,,,,,,,,,,,,,,,,,,,,,,,,,,,,,,,,,,,,,,,,,,,,,,,,,,,,,,,,,,,,,,,,,,,,,,,,,,,,,,,,,
372,O'pote,40.4291726,-3.5322676,,3,28830.0,Avenida de la Virgen de Montserrat,bar,,,,,,,,,,,,,,,,,,,,,,,,,,,,,,,,,,,,,,,,,,,,,,,,,,,,,,,,,,,,,,,,,,,,,,,,,,,,,,,,,,,,,,,
373,El Olivar,40.4273991,-3.5359363999999998,,21,28830.0,Calle del Olivar,bar,,,,,,,,,,,,,,,,,,,,,,,,,,,,,,,,,,,,,,,,,,,,,,,,,,,,,,,,,,,,,,,,,,,,,,,,,,,,,,,,,,,,,,,
374,Pepe,40.4279948,-3.5353269,,,28830.0,,bar,,,,,,,,,,,,,,,,,,,,,,,,,,,,,,,,,,,,,,,,,,,,,,,,,,,,,,,,,,,,,,,,,,,,,,,,,,,,,,,,,,,,,,,
375,La Taurina,40.4251054,-3.5366646,,,,,bar,,,,,,,,,,,,,,,,,,,,,,,,,,,,,,,,,,,,,,,,,,,,,,,,,,,,,,,,,,,,,,,,,,,,,,,,,,,,,,,,,,,,,,,
376,Cárdenas,40.4249529,-3.5301035,,,,,bar,,,,yes,,,,,,,,,,,,,,,,,,,,,,,,,,,,,,,,,,,,,,,,,,,,,,,,,,,,,,,,,,,,,,,,,,,,,,,,,,,,,,,,,,,
377,El Generalife,40.4280138,-3.5307729,,10,28830.0,Calle Comercio,bar,,,,,,,,,,,,,,,,,,,,,,,,,,,,,,,,,,,,,,,,,,,,,,,,,,,,,,,,,,,,,,,,,,,,,,,,,,,,,,,,,,,,,,,
378,Andra,40.4283597,-3.5305177,,16,28830.0,Calle Comercio,bar,,,,,,,,,,,,,,,,,,,,,,,,,,,,,,,,,,,,,,,,,,,,,,,,,,,,,,,,,,,,,,,,,,,,,,,,,,,,,,,,,,,,,,,
379,Bar Toledano,40.4284427,-3.5294379,,28,28830.0,Calle de la Presa,bar,,,,,,,,,,,,,,,,,,,,,,,,,,,,,,,,,,,,,,,,,,,,,,,,,,,,,,,,,,,,,,,,,,,,,,,,,,,,,,,,,,,,,,,
380,Goyo,40.4250378,-3.5288136,,1,28830.0,Calle de Matilde de la Torre,bar,,,,,,,,,,,,,,,,,,,,,,,,,,,,,,,,,,,,,,,,,,,,,,,,,,,,,,,,,,,,,,,,,,,,,,,,,,,,,,,,,,,,,,,
381,Arahal,40.4275251,-3.530228,,8,28830.0,Calle de la Presa,bar,,,,,,+34 912313726,,,,,,,,,,,,,,,,,,,,,,,,,,,,,,,,,,,,,,,,,,,,,,,,,,,,,,,,,,,,,,,,,,,,,,,,,,,,,,,,,
382,Castilla's,40.4286588,-3.5293611,,30,28830.0,Calle de la Presa,bar,,+34 916732665,,,,,,,,,,,,spanish,,,,,,,,,,,,,,,,,,,,,,,,,,,,,,,,,,,,,,,,,,,,,,,,,,,,,,,,,,,,,,,,,,,,,,,,,
383,La Ría,40.4286822,-3.5299579999999997,,,,,bar,,,,,,,,,,,,,,,,,,,,,,,,,,,,,,,,,,,,,,,,,,,,,,,,,,,,,,,,,,,,,,,,,,,,,,,,,,,,,,,,,,,,,,,
384,Gloria Fuertes,40.4231051,-3.5300247000000002,,,,,bar,,,,yes,,,,,,,,,,,,,,,,,,,,,,,,,,,,,,,,,,,,,,,,,,,,,,,,,,,,,,,,,,,,,,,,,,,,,,,,,,,,,,,,,,,
385,Ogalla,40.4279116,-3.5305314,,,,,bar,,,,,,,,,,,,,,,,,,,,,,,,,,,,,,,,,,,,,,,,,,,,,,,,,,,,,,,,,,,,,,,,,,,,,,,,,,,,,,,,,,,,,,,
386,Duarte,40.4281028,-3.5292728,,24 posterior,28830.0,Calle de la Presa,bar,,,,,,,,,,,,,,,,,,,,,,,,,,,,,,,,,,,,,,,,,,,,,,,,,,,,,,,,,,,,,,,,,,,,,,,,,,,,,,,,,,,,,,,
387,Bar en Sola,40.428207,-3.529532,,,,,bar,,,,,,,,,,,,,,,,,,,,,,,,,,,,,,,,,,,,,,,,,,,,,,,,,,,,,,,,,,,,,,,,,,,,,,,,,,,,,,,,,,,,,,,
388,Pío,40.4209721,-3.5285361,,,,,bar,,,,,,,,,,,,,,,,,,,,,,,,,,,,,,,,,,,,,,,,,,,,,,,,,,,,,,,,,,,,,,,,,,,,,,,,,,,,,,,,,,,,,,,
389,Bar Navas,40.398528,-3.7674716999999998,,,,,bar,,,,,,,,,,,,,,,,,,,,,,,,,,,,,,,,,,,,,,,,,,,,,,,,,,,,,,,,,,,,,,,,,,,,,,,,,,,,,,,,,,,,,,,
390,Bar Rafael,40.3981337,-3.7673031999999997,,,,,bar,,,,,,,,,,,,,,,,,,,,,,,,,,,,,,,,,,,,,,,,,,,,,,,,,,,,,,,,,,,,,,,,,,,,,,,,,,,,,,,,,,,,,,,
391,,40.3848161,-3.7825395,,,,,bar,,,,,,,,,,,,,,,,,,,,,,,,,,,,,,,,,,,,,,,,,,,,,,,,,,,,,,,,,,,,,,,,,,,,,,,,,,,,,,,,,,,,,,,
392,Las 3 JJJ,40.4495365,-3.4628004,,,,,bar,,,,,,,,,,,,,survey,,,,,,,,,,,,,,,,,,,,,,,,,,,,,,,,,,,,,,,,,,,,,,,,,,,,,,,,,,,,,,,,,,,,,,,,,,
393,El Raso,40.6382134,-4.0206435,,,,,bar,,,,,,,,,,,,,,,,,,,,,,,,,,,,,,,,,,,,,,,,,,,,,,,,,,,,,,,,,,,,,,,,,,,,,,,,,,,,,,,,,,,,,,,
394,El Rincón,40.1071399,-3.3867778,,,,,bar,,,,,,,,,,,,,,,,,,,,,,,,,,,,,,,,,,,,,,,,,,,,,,,,,,,,,,,,,,,,,,,,,,,,,,,,,,,,,,,,,,,,,,,
395,Cafetería Val,40.4810935,-3.3494888,,,,,bar,,,,,,,,,,,,,,,,,,,,,,,,,,,,,,,,,,,,,,,,,,,,,,,,,,,,,,,,,,,,,,,,,,,,,,,,,,,,,,,,,,,,,,,
396,El Puentecillo,40.81428,-3.7833303,,,,,bar,,,,,,,,,,,,,,,,,,,,,,,,,,,,,,,,,,,,no,,,,,,,,,,,,,,,,,,,,,,,,,,,,,,,,,,,,,,,,,,,,,,,,,,,
397,El Gallo,40.44896,-3.6083112,,,,,bar,,,,,,,,,,,,,,,,,,,,,,,,,,,,,,,,,,,,,Empanada,,,,,,,,,,,,,,,,,,,,,,,,,,,,,,,,,,,,,,,,,,,,,,,,,,
398,El Bulevar,40.4269534,-3.5262549,,13,28830.0,Calle de Rafael Sánchez Ferlosio,bar,,,,,,,,,,,,,,,,,,,,,,,,,,,,,,,,,,,,,,,,,,,,,,,,,,,,,,,,,,,,,,,,,,,,,,,,,,,,,,,,,,,,,,,
399,Venecia,40.4270998,-3.5255891,,,,,bar,,,,,,,,,,,,,,,,,,,,,,,,,,,,,,,,,,,,,,,,,,,,,,,,,,,,,,,,,,,,,,,,,,,,,,,,,,,,,,,,,,,,,,,
400,Cervecería La Sureña,40.4553481,-3.6931601,,,,,bar,,,,,,,,,,,,,,,,,,,,,,,,,,,,,,,,,,,,,,,,,,,,,,,,,,,,,,,,,,,,,,,,,,,,,,,,,,,,,,,,,,,,,,,
401,Boricua,40.3944085,-3.7532099,,,,,bar,,,,,,,,,,,,,,,,,,,,,,,,,,,,,,,,,,,,,,,,,,,,,,,,,,,,,,,,,,,,,,,,,,,,,,,,,,,,,,,,,,,,,,,
402,Bar Cuesta,40.4642629,-3.4673473,,,,,bar,,,,,,,,,,,,,survey,,,,,,,,,,,,,,,,,,,,,,,,,,,,,,,,,,,,,,,,,,,,,,,,,,,,,,,,,,,,,,,,,,,,,,,,,,
403,La Senda de Xiquena,40.4219581,-3.6940909,Madrid,2,28004.0,Calle del Conde de Xiquena,bar,,,,no,,+34 915 23 77 18,,,https://www.lasendadexiquena.es/,,,,survey,,,,,,,,,,,,,,,,,,,,,,,,,,,,,,,,,,,,,,,,,,,,,,,,,,,,,,,,,,,,,,,,,,,,,,,,,,
404,Rocafría,40.4218481,-3.6955709,,,,,bar,,,,,,,,,,,,,survey,,,,,,,,,,,,,,,,,,,,,,,,,,,,,,,,,,,,,,,,,,,,,,,,,,,,,,,,,,,,,,,,,,,,,,,,,,
405,Café Central,40.4141959,-3.7018671,,10,,Plaza del Ángel,bar,,,https://www.cafecentralmadrid.com/,,,,,,,,,,+34 913 69 41 43,,,,,,,,,,,,,,,,,,,,,,,,,,,,,,,,,,,,,,,,,,,,,,,,,,,,,,,,,,,,,,,,,,,,,,,,,,
406,Bar de la Comedia,40.415455,-3.700385,,16,,Calle del Príncipe,bar,,,,,,,,,,,,,+34 915 22 30 32 ‎,,,,,,,,,,,,,,,,,,,,,,,,,,,,,,,,,,,,,,,,,,,,,,,,,,,,,,,,,,,,,,,,,,,,,,,,,,
407,Vinícola Mentridana,40.4106999,-3.6978462,,9,,Calle de San Eugenio,bar,,,,,,,,,,,,,+34 915 27 87 60,,,,,,,,,,,,,,,,,,,,,,,,,,,,,,,,,,,,,,,,,,,,,,,,,,,,,,,,,,,,,,,,,,,,,,,,,,
408,Taberna Basarri,40.4237544,-3.6708826,,,,,bar,,,,,,,,,,,,,survey,,,,,,,,,,,,,,,,,,,,,,,,,,,,,,,,,,,,,,,,,,,,,,,,,,,,,,,,,,,,,,,,,,,,,,,,,,
409,Cevecería Fontana,40.2855521,-3.7986554,,,,,bar,,,,,,,,,,,,,,,,,,,,,,,,,,,,,,,,,,,,,,,,,,,,,,,,,,,,,,,,,,,,,,,,,,,,,,,,,,,,,,,,,,,,,,,
410,La Tienda de la Cerveza,40.4105514,-3.7080953,Madrid,12,28005.0,Calle de la Ruda,bar,,+34 91 014 83 39,http://www.latiendadecerveza.es/,no,,,,,,,"Tu-Fr 11:00-14:00,17:00-21:00; Sa,Su 10:30-14:30",,,,,,,,ES,,,,,,,,,,,,,,,,,,,yes,alcohol,,,,,,,,,,,,,,,,,,,,,,,,,,,,,,,,,,,,,,,,,,,,,,,,
411,El 89,40.4054177,-3.6974199,,,,,bar,,,,,,,,,,,,,survey,,,,,,,,,,,,,,,,,,,,,,,,,,,,,,,,,,,,,,,,,,,,,,,,,,,,,,,,,,,,,,,,,,,,,,,,,,
412,Bar Cascorro,40.4749327,-3.3745575,,,,,bar,,,,,,,,,,,,,,,,,,,,,,,,,,,,,,,,,,,,,,,,,,,,,,,,,,,,,,,,,,,,,,,,,,,,,,,,,,,,,,,,,,,,,,,
413,María Bonita Taco Bar,40.4282822,-3.7080809,Madrid,15,28015.0,Calle de San Hermenegildo,bar,,,,,,,,,,,,,,,,,,,,,,,,,,,,,,,,,,,,,,,,,,,,,,,,,,,,,,,,,,,,,,,,,,,,,,,,,,,,,,,,,,,,,,,
414,A Mesa Puesta,40.5761723,-3.9310485,,,,,bar,,,,,,,,,,,,,,,,,,,,,,,,,,,,,,,,,,,,,,,,,,,,,,,,,,,,,,,,,,,,,,,,,,,,,,,,,,,,,,,,,,,,,,,
415,Los Cuatro Ases,40.449862,-3.4683332,,,,,bar,,,,,,,,,,,,,survey,,,,,,,,,,,,,,,,,,,,,,,,,,,,,,,,,,,,,,,,,,,,,,,,,,,,,,,,,,,,,,,,,,,,,,,,,,
416,Cervecería García,40.3978147,-3.7712813,,,,,bar,,,,,,,,,,,,,,,,,,,,,,,,,,,,,,,,,,,,,,,,,,,,,,,,,,,,,,,,,,,,,,,,,,,,,,,,,,,,,,,,,,,,,,,
417,Bar LLL,40.4524252,-3.4696114,,,,,bar,,,,,,,,,,,,,survey,,,,,,,,,,,,,,,,,,,,,,,,,,,,,,,,,,,,,,,,,,,,,,,,,,,,,,,,,,,,,,,,,,,,,,,,,,
418,Bar Lázaro,40.4523513,-3.4692,,,,,bar,,,,,,,,,,,,,survey,,,,,,,,,,,,,,,,,,,,,,,,,,,,,,,,,,,,,,,,,,,,,,,,,,,,,,,,,,,,,,,,,,,,,,,,,,
419,El Húmedo,40.4614939,-3.4615415,,,,,bar,,,,,,,,,,,,,survey,,,,,,,,,,,,,,,,,,,,,,,,,,,,,,,,,,,,,,,,,,,,,,,,,,,,,,,,,,,,,,,,,,,,,,,,,,
420,The Tate's Bar,40.4628883,-3.4634298,,,,,bar,,,,,,,,,,,,,survey,,,,,,,,,,,,,,,,,,,,,,,,,,,,,,,,,,,,,,,,,,,,,,,,,,,,,,,,,,,,,,,,,,,,,,,,,,
421,Sanz,40.426649,-3.5415389,,,,,bar,,,,,,,,,,,,,,,,,,,,,,,,,,,,,,,,,,,,,,,,,,,,,,,,,,,,,,,,,,,,,,,,,,,,,,,,,,,,,,,,,,,,,,,
422,Hierbabuena,40.3980249,-3.7680268999999997,,,,,bar,,,,,,,,,,,,,,,,,,,,,,,,,,,,,,,,,,,,,,,,,,,,,,,,,,,,,,,,,,,,,,,,,,,,,,,,,,,,,,,,,,,,,,,
423,La Barra Panda,40.3975514,-3.7716352,,,,,bar,,,,,,,,,,,,,,,,,,,,,,,,,,,,,,,,,,,,,,,,,,,,,,,,,,,,,,,,,,,,,,,,,,,,,,,,,,,,,,,,,,,,,,,
424,Cervecería Jamonería Siglo de Oro,40.4285579,-3.5445536,,,,,bar,,,,,,,,,,,,,,,,,,,,,,,,,,,,,,,,,,,,,,,,,,,,,,,,,,,,,,,,,,,,,,,,,,,,,,,,,,,,,,,,,,,,,,,
425,Bar Castilla,40.425543,-3.5378755,,,,,bar,,,,,,,,,,,,,,,,,,,,,,,,,,,,,,,,,,,,,,,,,,,,,,,,,,,,,,,,,,,,,,,,,,,,,,,,,,,,,,,,,,,,,,,
426,Victorino,40.4264851,-3.5376297,,,,,bar,,,,,,,,,,,,,,,,,,,,,,,,,,,,,,,,,,,,,,,,,,,,,,,,,,,,,,,,,,,,,,,,,,,,,,,,,,,,,,,,,,,,,,,
427,JP,40.4271739,-3.5378081999999997,,,,,bar,,,,,,,,,,,,,,,,,,,,,,,,,,,,,,,,,,,,,,,,,,,,,,,,,,,,,,,,,,,,,,,,,,,,,,,,,,,,,,,,,,,,,,,
428,Felgar,40.4788287,-3.6978655,,,,,bar,,,,,,,,,,,,,,,,,,,,,,,,,,,,,,,,,,,,,,,,,,,,,,,,,,,,,,,,,,,,,,,,,,,,,,,,,,,,,,,,,,,,,,,
429,Los Fernándes,40.3761079,-3.7522784,,,,,bar,,,,,,,,,,El Moraíto,,,,,,,,,,,,,,,,,,,,,,,,,,,,,,,,,,,,,,,,,,,,,,,,,,,,,,,,,,,,,,,,,,,,,,,,,,,,,
430,Marrakech,40.410931,-3.6943629,,,,,bar,,,,limited,,,,,,,,,,,,,,,,,,,,,,,,,,,,,,,,,,,,,,,,,,,,,,,,,,,,,,,,,,,,,,,,,,,,,,,,,,,,,,,,,,,
431,Donde Chelo,40.4127704,-3.6963795,,,,,bar,,,,limited,,,,,,Monamí,,,,,,,,,,,,,,,,,,,,,,,,,,,,,,,,,,,,,,,,,,,,,,,,,,,,,,,,,,,,,,,,,,,,,,,,,,,,,
432,Antelo,40.4547057,-3.4915945,,47,28830.0,Avenida de Castilla,bar,,,,,,+34 916774829,,,,,,,,barbecue,,,,,,,,,,,,,,,,,,,,,,,,,,,,,,,,,,,,,,,,,,,,,,,,,,,,,,,,,,,,,,,,,,,,,,,,,
433,Restaurante Gordillo,40.4546806,-3.4918131,,45,28830.0,Avenida de Castilla,bar,,,,,,+34 916774829,,,,,,,,spanish,,,,,,,,,,,,,,,,,,,,,,,,,,,,,,,,,,,,,,,,,,,,,,,,,,,,,,,,,,,,,,,,,,,,,,,,,
434,Canapé Bar,40.4185004,-3.5279968999999998,,,,,bar,,,,yes,,,,,,,,,,,,,,,,,,,,,,,,,,,,,,,,,,,,,,,,,,,,,,,,,,,,,,,,,,,,,,,,,,,,,,,,,,,,,,,,,,,
435,Barbara Ann,40.4257801,-3.6959139,Madrid,8,28004.0,Calle de Santa Teresa,bar,,,https://barbaraann.es/,,,,,,,Chatarra,,,,,,,,,,,,,,,,,,,,,,,Justicia,,,,,,,,,,,,,,,,,,,,,,,,,,,,,,,,,,,,,,,,,,,,,,,,,,,,,,
436,El Rincón de Boni,40.6578,-4.023406,Alpedrete,7,28430.0,Calle Doctor Varela,bar,,+34 670 21 01 70,,,,,,,,,,outside,,,,,,,,,,,,,,,,,,,,yes,,,,,,,,yes,,,,,,,,,,,,,,,,,,,,,,,,,,,,,,,,,,,,,,,,,,,,,,,
437,Bodega San Mateo,40.659196,-4.023711,Alpedrete,2,28430.0,Calle Santa Quiteria,bar,,+34 91 849 2496,http://www.bodegasanmateo.com,,,,,,,,,no,,,,,,,,,,,,,,Cerveza de barril tirada al estilo tradicional. Comida casera raciones y tapas.,,,,,,no,,,,,,,,yes,,,,,,,,,,,,,,,,,,,,,,,,,,,,,,,,,,,,,,,,,,,,,,,
438,La Casa de Cano,40.659765,-4.024548,Alpedrete,4,28430.0,Plaza Vicente Guillén Zamora,bar,,+34 918571323,,,,,,,,,,outside,,,,,,,,,,,,,,Menús de día.,,,,,,yes,,,,,,,,yes,,,,,,,,,,,,,,,,,,,,,,,,,,,,,,,,,,,,,,,,,,,,,,,
439,Venta del Labrador,40.659672,-4.02423,Alpedrete,4,28430.0,Travesía Real,bar,,+34 918572562,,,,,,,,,,outside,,,,,,,,,,,,,,,,,,,,yes,,,,,,,,yes,,,,,,,,,,,,,,,,,,,,,,,,,,,,,,,,,,,,,,,,,,,,,,,
440,La Tabernita de Mimo,40.659835,-4.024196,Alpedrete,,28430.0,,bar,,,,,,,,,,,,outside,,,,,,,,,,,,,,,,,,,,yes,,,,,,,,,,,,,,,,,,,,,,,,,,,,,,,,,,,,,,,,,,,,,,,,,,,,,,,
441,Bar El Caño,40.660754,-4.022487,Alpedrete,,28430.0,,bar,,,,,http://www.facebook.com/pages/Bar-Restaurante-El-Ca%C3%B1o-de-Alpedrete/127244147425329,,,,,,,outside,,,,,,,,,,,yes,,,,,,,,,yes,,,wlan,,,,,yes,no,no,no,yes,yes,outdoor,,,,,,,,,,,,,,,,,,,,,,,,,,,,,,,,,,,,,,,,,
442,Mesón El Cabrero,40.659467,-4.025261,Alpedrete,10,28430.0,Calle San Juan,bar,,+34 918 57 16 65,https://mesonelcabrero.jimdo.com/,,,,,,,,,no,,chicken,,,,,,,,,,,,Preparan asados en horno de leña.,,Mesón típico de comida castellana abierto desde 1979. Cabrito y Corderos asados en horno de leña.,,,,no,,,,,,,,yes,,,,,,,,,,,,,,,,,,,,,,,,,,,,,,,,,,,,,,,,,,,,,,,
443,La Cantería,40.660057,-4.024615,Alpedrete,18,28430.0,Calle Real,bar,,+34 914 12 99 88,,,,,,,,,,,,,,,,,,,,,,,,,,,,,,yes,,,,,,,,yes,,,,,,,,,,,,,,,,,,,,,,,,,,,,,,,,,,,,,,,,,,,,,,,
444,Cachivache,40.656864,-4.0251082,Alpedrete,1,28430.0,Calle Betanzo,bar,,+34 918579112,,,,,,,,,,outside,,,,,,,,,,,,,,Tapas y pinchos. Rica cocina y buen ribera.,,,,,,yes,,,,,,,,yes,,,,,,,,,,,,,,,,,,,,,,,,,,,,,,,,,,,,,,,,,,,,,,,
445,El Perro Flaco,40.3372976,-3.8662466,Móstoles,27,,Calle Clavel,bar,,,,,,,,,,,,,,,,,,,,,,,,,,,,,,,,,,,,,,,,,,,,,,,El Perro Flaco,,,,,,,,,,,,,,,,,,,,,,,,,,,,,,,,,,,,,,,,
446,Cafetería Santillán,40.4560725,-3.6806509,,,,,bar,,,,,,,,,,,,,,,,,,,,,,,,,,,,,,,,,,,,,,,,,,,,,,,,,,,,,,,,,,,,,,,,,,,,,,,,,,,,,,,,,,,,,,,
447,Potos,40.4560031,-3.680624,,,,,bar,,,,,,,,,,,,,,,,,,,,,,,,,,,,,,,,,,,,,,,,,,,,,,,,,,,,,,,,,,,,,,,,,,,,,,,,,,,,,,,,,,,,,,,
448,El Sotillo,40.659586,-4.024712,Alpedrete,,28430.0,,bar,,,,,,,,,,,,,,,,,,,,,,,,,,,,,,,,,,,,,,,,,,,,,,,,,,,,,,,,,,,,,,,,,,,,,,,,,,,,,,,,,,,,,,,
449,,40.4552826,-3.6807957,,,,,bar,,,,,,,,,,,,,,,,,,,,,,,,,,,,,,,,,,,,,,,,,,,,,,,,,,,,,,,,,,,,,,,,,,,,,,,,,,,,,,,,,,,,,,,
450,Casinillo II,40.4551217,-3.6792346,,,,,bar,,,,,,,,,,,,,,,,,,,,,,,,,,,,,,,,,,,,,,,,,,,,,,,,,,,,,,,,,,,,,,,,,,,,,,,,,,,,,,,,,,,,,,,
451,El Paso,40.3991522,-3.6596352999999997,,93,,Calle del Camino de Valderrivas,bar,,,,,,,,,,,,,,,,,,,,,,,,,,,,,,,,yes,,,,,,,,,,,,,,,,,,,,,,,,,,,,,,,,,,,,,,,,,,,,,,,,,,,,,,,
452,Lord Ship,40.3986357,-3.6587747999999998,,99,,Calle del Camino de Valderrivas,bar,,,,,,,,,,,,,,,,,,,,,,,,,,,,,,,,,,,,,,,,,,,,,,,,,,,,,,,,,,,,,,,,,,,,,,,,,,,,,,,,,,,,,,,
453,El Mirador,40.5469259,-4.1817935,,,,,bar,,,,,,,,,,,,,,,,,,,,,,,,,,,,,,,,,,,,,,,,,,,,,,,,,,,,,,,,,,,,,,,,,,,,,,,,,,,,,,,,,,,,,,,
454,Sabor Bohemio,40.660037,-4.026301,Alpedrete,14,28430.0,Avenida de los Canteros,bar,,+34 697 19 88 54,,yes,https://www.facebook.com/pages/Sabor-Bohemio/1419100294994063?id=1419100294994063&sk=info,,,,,,,outside,,,,,,,,,,,,,,"Comida casera, raciones, menú del día y tapas. Vinos gallegos, cerveza Estrella Galicia.",,,,,,yes,,,,,,,,yes,,,,,,,,,,,,,,,,,,,,,,,,,,,,,,,,,,,,,,,,,,,,,,,
455,El Cuñao,40.65907,-4.023719,Alpedrete,2,28430.0,Plaza de la Villa,bar,,+34 618 43 25 50,,,,,,,,,,outside,,,,,,,,,,,,,,,,,,,,yes,,,,,,,,yes,,,,,,,,,,,,,,,,,,,,,,,,,,,,,,,,,,,,,,,,,,,,,,,
456,Bar Plaza,40.660027,-4.025825,Alpedrete,,28430.0,,bar,,,,,,,,,,,,outside,,,,,,,,,,,,,,,,,,,,yes,,,,,,,,yes,,,,,,,,,,,,,,,,,,,,,,,,,,,,,,,,,,,,,,,,,,,,,,,
457,La Antigua Esquina,40.659942,-4.02582,Alpedrete,,28430.0,,bar,,,,,,,,,,,,outside,,,,,,,,,,,,,,,,,,,,yes,,,,,,,,yes,,,,,,,,,,,,,,,,,,,,,,,,,,,,,,,,,,,,,,,,,,,,,,,
458,Bar El Cabrero,40.6594791,-4.0252598,Alpedrete,,28430.0,,bar,,+34 918571665,https://mesonelcabrero.jimdo.com/,,,,,,,,,no,,chicken,,,,,,,,,,,,Preparan asados en horno de leña.,,Cabrito y Corderos asados en horno de leña.,,,,no,,,,,,,,yes,,,,,,,,,,,,,,,,,,,,,,,,,,,,,,,,,,,,,,,,,,,,,,,
459,Ell Refugio de la Vega,40.6589779,-4.0247028,Alpedrete,3,28430.0,Calle de la Pozuela,bar,,91857179,,,http://www.facebook.com/pages/El-Refugio-de-la-Vega/537661329602055,,,,,,Mo 08:00-00:00,We 08:00-00:00,Th 08:00-00:00,Fr 08:00-03:00,Sa 12:00-03:00,Su 12:00-03:00,,,,,,,,,,,,,,,"Restaurante de cocina tradicional, aperitivos, retransmisiones deportivas.",,,,,,,,,,,,,,,,no,no,yes,yes,,,http://refugiodelavega.blogspot.com.es/,,,,,,,,,,,,,,,,,,,,,,,,,,,,,,,,,,
460,,40.4107399,-3.7306952,,,,,bar,,,,,,,,,,,,,,peruvian,,,,,,,,,,,,,,,,,,,,,,,,,,,,,,,,,,,,,,,,,,,,,,,,,,,,,,,,,,,,,,,,,,,,,,,,,
461,,40.4684174,-3.5799021,,,,,bar,,,,,,,,,,,,,,,,,,,,,,,,,,,,,,,,,,,,,,,,,,,,,,,,,,,,,,,,,,,,,,,,,,,,,,,,,,,,,,,,,,,,,,,
462,,40.4687133,-3.5796312,,,,,bar,,,,,,,,,,,,,,,,,,,,,,,,,,,,,,,,,,,,,,,,,,,,,,,,,,,,,,,,,,,,,,,,,,,,,,,,,,,,,,,,,,,,,,,
463,Cardamomo,40.4154628,-3.6995579,Madrid,15,28014.0,Calle de Echegaray,bar,,,http://cardamomo.es/,,,+34 918 051 038,,,,,,,,,,,,,,,,,,,,,,,,,,,,,,,,,,,,,,,,,,,contacto@cardamomo.es,,,,,,,,,,,,,,,,,,,,,,,,,,,,,,,,,,,,,,
464,,40.5034829,-3.70838,,,,,bar,,,,,,,,,,,,,,,,,,,,,,,,,,,,,,,,,,,,,,,,,,,,,,,,,,,,,,,,,,,,,,,,,,,,,,,,,,,,,,,,,,,,,,,
465,,40.4926609,-3.8863237,,,,,bar,,,,,,,,,,,,,,,,,,,,,,,,,,,,,,,,,,,,,,,,,,,,,,,,,,,,,,,,,,,,,,,,,,,,,,,,,,,,,,,,,,,,,,,
466,El Pedal,40.4079502,-3.6970032,Madrid,33,28012.0,Calle de Argumosa,bar,,,,,,,,,,,,,,,,,,,,,,,,,,,,,,,,,,,,,,,,,,,,,,,,,,,,,,,,,,,,,,,,,,,,,,,,,,,,,,,,,,,,,,,
467,,40.3333977,-3.831062,,,,,bar,,,,,,,,,,,,,,,,,,,,,,,,,,,,,,,,,,,,,,,,,,,,,,,,,,,,,,,,,,,,,,,,,,,,,,,,,,,,,,,,,,,,,,,
468,,40.5047294,-3.5319922,,,,,bar,,,,,,,,,,,,,,,,,,,,,,,,,,,,,,,,,,,,,,,,,,,,,,,,,,,,,,,,,,,,,,,,,,,,,,,,,,,,,,,,,,,,,,,
469,,40.504815,-3.5288889,,,,,bar,,,,,,,,,,,,,,,,,,,,,,,,,,,,,,,,,,,,,,,,,,,,,,,,,,,,,,,,,,,,,,,,,,,,,,,,,,,,,,,,,,,,,,,
470,Ribadeza,40.4082985,-3.7130604,,,,,bar,,,,,,,,,,,,,,,,,,,,,,,,,,,,,,,,,,,,,,,,,,,,,,,,,,,,,,,,,,,,,,,,,,,,,,,,,,,,,,,,,,,,,,,
471,100 Montaditos,40.4060918,-3.7113974,Madrid,3,28005.0,Glorieta Puerta de Toledo,bar,,+34 914 73 82 70,,,,,,,,,Mo-Su 10:30-23:00, Fr 10:30-24:00, Sa 12:30-24:00,outside,,,,,,,,,,,,,,,,,,,,yes,,,,,,,,,,,,,,,,,,yes,,,,,,,,,,,,,,,,,,,,,,,,,,,,,,,,,,,
472,Salsería II,40.4058987,-3.7113507,,,,,bar,,,,,,,,,,,,,,,,,,,,,,,,,,,,,,,,,,,,,,,,,,,,,,,,,,,,,,,,,,,,,,,,,,,,,,,,,,,,,,,,,,,,,,,
473,New Moon,40.4260104,-3.5395922,,,,,bar,,,,,,,,,,El Flamenco,,,survey,,,,,,,,,,,,,,,,,,,,,,,,,,,,,,,,,,,,,,,,,,,,,,,,,,,,,,,,,,,,,,,,,,,,,,,,,,
474,JH I,40.4276327,-3.5400475,,,,,bar,,,,,,,,,,,,,,,,,,,,,,,,,,,,,,,,,,,,,,,,,,,,,,,,,,,,,,,,,,,,,,,,,,,,,,,,,,,,,,,,,,,,,,,
475,The Kerry Café,40.426455,-3.5420508,,,,,bar,,,,,,,,,,,,,,,,,,,,,,,,,,,,,,,,,,,,,,,,,,,,,,,,,,,,,,,,,,,,,,,,,,,,,,,,,,,,,,,,,,,,,,,
476,Sidney,40.3721055,-3.6119759,Madrid,35,28051.0,Avenida de La Gavia,bar,,,,,,,,,,,Tu-Su 12:00-2:00,,,,,,,,,,,,,,,,,,,,,,,,,,,,,,,,,,,,,,,,,,,,,,,,,,,,,,,,,,,,,,,,,,,,,,,,,,,,
477,Cervecería La Sureña,40.3710143,-3.5983556,,,,,bar,,,,,,,,,,,,,,,,,,,,,,,,,,,,,,,,,,,,,,,,,,,,,,,,,,,,,,,,,,,,,,,,,,,,,,,,,,,,,,,,,,,,,,,
478,3 Hermanos,40.3218985,-3.8699168999999998,,,,,bar,,,,,,,,,,,,,,,,,,,,,,,,,,,,,,,,,,,,,,,,,,,,,,,,,,,,,,,,,,,,,,,,,,,,,,,,,,,,,,,,,,,,,,,
479,Bar Marivi,40.3217134,-3.8689492,,,,,bar,,,,,,,,,,,,,,,,,,,,,,,,,,,,,,,,,,,,,,,,,,,,,,,,,,,,,,,,,,,,,,,,,,,,,,,,,,,,,,,,,,,,,,,
480,Bar Sánchez,40.7415287,-4.0548931,Cercedilla,1,28470.0,Avenida Sierra de Guadarrama,bar,,+34 918 52 01 38,,,http://www.facebook.com/pages/Bar-S%C3%A1nchez/129995957061525,,,,,,,,,,,,,,,,,,,,,Tortilla de patata recien hecha y la tapa estrella de la casa: Un crujiente y jugoso trozo de bacalao acompañado de pisto.,,,,,,,,,,,,,,,,,,,,,,,,,,,,,,,,,,,,,,,,,,,,,,,,,,,,,,,,,,,,,
481,Al lío,40.7417575,-4.0549008,Cercedilla,1,28470.0,Travesía de la Pontezuela,bar,,+34 660 39 66 46,,,http://www.facebook.com/pages/a-lo-tuyo/129721307057778,,,,,,,,,,,,,,,,,,,,,"Bar situado en pleno centro de Cercedilla, en el que puedes tomar el aperitivo con ricas tapas así­ como degustar cualquiera de sus tostas",,,,,,,,,,,,,,,,,,,,,,,,,,,,,,,,,,,,,,,,,,,,,,,,,,,,,,,,,,,,,
482,A Veira Do Mar,40.4569681,-3.7037572,,,,,bar,,,,,,,,,,,,,,,,,,,,,,,,,,,,,,,,,,,,,,,,,,,,,,,,,,,,,,,,,,,,,,,,,,,,,,,,,,,,,,,,,,,,,,,
483,Riveira III,40.4568599,-3.7034104,,,,,bar,,,,no,,,,,,,,,,,,,,,,,,,,,,,,,,,,,,,,,,,,,,,,,,,,,,,,,,,,,,,,,,,,,,,,,,,,,,,,,,,,,,,,,,,
484,D'Callejo,40.6803513,-3.9678305,Moralzarzal,Local4,28411.0,Calle Salvador Sánchez Frascuelo. Plaza de Toros,bar,,+34 918 57 00 00,,,,,,,,,,,,,,,,,,,,,,,,"Local de pinchos de mercado situado en la plaza de toros de Moralzarzal. Tienen pinchos calientes y fríos, cambian la carta dos veces al año pero tienen pizarra con sugerencia del día.",,,,,,,,,,,,,,,,,,,,,,,,,,,,,,,,,,,,,,,,,,,,,,,,,,,,,,,,,,,,,
485,Bar la Parroquia,40.8138302,-3.7655803,,,,,bar,,,,,,,,,,,,,,,,,,,,,,,,,,,,,,,,,,,,,,,,,,,,,,,,,,,,,,,,,,,,,,,,,,,,,,,,,,,,,,,,,,,,,,,
486,Casa Chaqueta,40.6226147,-3.907013,Hoyo de Manzanares,7,28240.0,Plaza Mayor,bar,,+34 918 56 71 40,http://www.restaurantecasachaqueta.es/,,,,,,,,,,,,,,,,,,,,,,,"Tapas de ensueño,Exquisita decoración,Buen servicio. Especialidad carnes a la brasa.",,,,,,,,,,,,,,,,,,,,,,,,,,,,,,,,,,,,,,,,,,,,,,,,,,,,,,,,,,,,,
487,La Camioneta,40.6245571,-3.9034008,Hoyo de Manzanares,8,28240.0,Camino de Manzanares,bar,,+34 918 56 55 81,http://la-camioneta.blogspot.com/,,,,,,,,,,,,,,,,,,,,,,,"Pintxos y raciones. -Solomillo, queso brie y cebolla caramelizada. -Jamón ibérico con salmorejo y huevo de codorniz. -Salmón ahumado con philadelphia y miel. -Chistorra, patata chip y huevo de codorniz. -Bacalao rebozado con verduritas. -Mini",,,,,,,,,,,,,,,,,,,,,,,,,"-rollitos de bacon y brie con salsa de frutos rojos. -Chipirones con gulas al ajillo. -Queso de cabra, membrillo y frutos secos. -Revuelto de morcilla con piñones. -Bacalao ahumado con confitura de tomate.",,,,,,,,,,,,,,,,,,,,,,,,,,,,,,,,,,,,
488,,40.3711246,-3.7479069,,,,,bar,,,,,,,,,,,,,,,,,,,,,,,,,,,,,,,,,,,,,,,,,,,,,,,,,,,,,,,,,,,,,,,,,,,,,,,,,,,,,,,,,,,,,,,
489,Dos de Mayo,40.5849708,-4.1312707,,,,,bar,,,,,,,,,,,,,,,,,,,,,,,,,,,,,,,,,,,,,,,,,,,,,,,,,,,,,,,,,,,,,,,,,,,,,,,,,,,,,,,,,,,,,,,
490,El Aperitivo,40.5845112,-4.1307211,,,,,bar,,+34 918 90 07 73,,,,,,,,,,,,,,,,,,,,,,,,,,,,,,,,,,,,,,,,,,,,,,,,,,,,,,,,,,,,,,,,,,,,,,,,,,,,,,,,,,,,,
491,Parada y Fonda,40.5855551,-4.1315198,,,,,bar,,+34 918 90 32 11,,,,,,,,,,,,,,,,,,,,,,,,,,,,,,,,,,,,,,,,,,,,,,,,,,,,,,,,,,,,,,,,,,,,,,,,,,,,,,,,,,,,,
492,Jardín,40.5848605,-4.1292212,,,,CALLE I,bar,,+34 918 90 83 32,,,,,,,,,,,,,,,,,,,,,,,,,,,,,,,,,,,,,,,,,,,,,,,,,,,,,,,,,,,,,,,,,,,,,,,,,,,,,,,,,,,,,
493,,40.2885167,-3.6931045,,,,,bar,,,,,,,,,,,,,,,,,,,,,,,,,,,,,,,,,,,,,,,,,,,,,,,,,,,,,,,,,,,,,,,,,,,,,,,,,,,,,,,,,,,,,,,
494,Bar el Hórreo,40.4111209,-3.6986832,Madrid,,28012.0,Calle de Santa Isabel,bar,,,,limited,,,,,,,,,,,,,,,,,,,,,,,,,,,,,,,,,,,,,,,,,,,,,,,,,,,,,,,,,,,,,,,,,,,,,,,,,,,,,,,,,,,
495,"Taberna Calatrava, 22",40.4094021,-3.712126,Madrid,22,,Calle Calatrava,bar,,,,,,+34 637051518,,,,,,,,,,,,,,,,,,,,,,,,,,,,,,,,,,,,,,,,,,,,,,,,,,,,,,,,,,,,,,,,,,,,,,,,,,,,,,,,,
496,La Morcilla,40.3445363,-3.7128193,,,,,bar,,,,,,,,,,,,,,,,,,,,,,,,,,,,,,,,,,,,,,,,,,,,,,,,,,,,,,,,,,,,,,,,,,,,,,,,,,,,,,,,,,,,,,,
497,Azotea de Círculo de Bellas Artes,40.4182665,-3.6963625,Madrid,42,28014.0,Calle de Alcalá,bar,,+34 911 234 567,http://www.azoteadelcirculo.com,,,,,,,,,,,,,,,,ES,,,,,,,,,,,,,,,,,,Roof bar,,,,,,,,,,,,,,,,,,,,,,,,,,,,,,,,,,,,,,,,,,,,,,,,,,
498,El yantar de ayer,40.4153727,-3.709051,,,,,bar,,,,,,,,,,,,,,,,,,,,,,,,,,,,,,,,,,,,,,,,,,,,,,,,,,,,,,,,,,,,,,,,,,,,,,,,,,,,,,,,,,,,,,,
499,Mikkeller,40.4224499,-3.7061900999999997,Madrid,22,28004.0,Calle de la Luna,bar,,,,no,https://es-es.facebook.com/MikkellerBarMadrid/?ref=page_internal,,,,https://mikkeller.com/,La luna 22 gastrobar,,,,,,,,,,,,,,,,,,,,,,,,,,,,,,,,,,,,,,,,,,,,,,,,,,,,,,,,,,,,,,,,,,,,,,,,,,,,,
500,,40.4214532,-3.7048541999999998,,,,,bar,,+34 91 532 55 64,https://www.gymage.es/?id=terrace,,,,,,,,,,,,,,,,,,,,,,,,,,,,,,,,,,,,,,,,,,,,,,,,,,,,,,,,,,,,,,,,,,,,,,,,,,,,,,,,,,,,
501,Casa Julio,40.4243081,-3.7036591999999997,Madrid,37,28004.0,Calle de la Madera,bar,,+34 915 227 274,http://www.barcasajulio.es/,,,,,,,,"Mo-Sa 13:00-15:30, 18:30-23:00",,,,,,,,,,,,,,,,,,,,,,,,,,,,,yes,,,,,,,,,,,,,,,,,,,,,,,,,,,,,,,,,,,,,,,,,,,,,,,
502,Cafeína,40.4237862,-3.7053122,Madrid,18,28004.0,Calle del Pez,bar,,,,,,,,,,,,,,,,,,,,,,,,,,,,,,,,,,,,,,,,,,,,,,,,,,,,,,,,,,,,,,,,,,,,,,,,,,,,,,,,,,,,,,,
503,Pepe Botella,40.4266363,-3.7036349,Madrid,12,28004.0,Calle de San Andrés,bar,,+34 91 522 43 09,http://www.cafepepebotella.es/es/,no,,,,,,,,,,,,,,,,,,,,,,,,,,Escalón muy alto,,,,,,,,,,,,,,,,,,,,,,,,,,,,,,,,,,,,,,,,,,,,,,,,,,,,,,,,,
504,Donde da la vuelta el viento,40.4062821,-3.7014975999999997,Madrid,81,28012.0,Calle del Mesón de Paredes,bar,,+34 91 017 7240,http://www.dondedalavueltaelviento.com,,,,,,,,,,,,,,,,ES,,,,,,,,,,,,,,,,,,,,,,,,,,,,,,,,,ES,,,,,,,,,,,,,,,,,,,,,,,,,,,,,,,,,,,
505,Cervecería History,40.4242529,-3.7093624,Madrid,6,28015.0,Calle de los Reyes,bar,,,,,,,,,,,,,,,,,,,,,,,,,,,,,,,,,,,,,,,,,,,,,,,,,,,,,,,,,,,,,,,,,,,,,,,,,,,,,,,,,,,,,,,
506,El Rincón de La Habana,40.4242292,-3.7094171,Madrid,6,28015.0,Calle de los Reyes,bar,,,,no,https://www.facebook.com/pages/Rinc%C3%B3n-de-La-Habana/445248112183005,,,,,,,,,,,,,,,,,,,,,,,,,Escalón a la entrada,,,,,,,,,,,,,,,,,,,,,,,,,,,,,,,,,,,,,,,,,,,,,,,,,,,,,,,,,
507,Superchulo,40.4285446,-3.7032793,Madrid,11,28004.0,Calle de Manuela Malasaña,bar,,,,,https://www.facebook.com/superchulomadrid/,+34 910 23 27 06,,,http://www.superchulomadrid.com/,,,,,,,,,,,,,,,,,,,,,,,,,,,,,,,,,,,,,,,,,,,,,,,,,,,,,,,,,,,,,,,,,,,,,,,,,,,,,,
508,Bodega de la Ardosa,40.4237792,-3.7017744,Madrid,13,28004.0,Calle de Colón,bar,,+34 915 214 979,http://www.laardosa.es/,limited,,,Q30070624,,,,Mo-Fr 08:30-02:00, Sa-Su 11:45-02:30,,,,,,,,ES,,,,,,,,,,,,,,,,,,,,,yes,,,,,,,,,,,,,,,,,,,,,,,,,,,,,,,,,,,,,,,,,,,,,,
509,El Ideal,40.4049626,-3.7077812999999997,,,,,bar,,,,,,,,,,,,,,,,,,,,,,,,,,,,,,,,,,,,,,,,,,,,,,,,,,,,,,,,,,,,,,,,,,,,,,,,,,,,,,,,,,,,,,,
510,Mesón O'agarimo,40.407892,-3.7127458,,,,,bar,,,,,,,,,,,,,,,,,,,,,,,,,,,,,,,,,,,,,,,,,,,,,,,,,,,,,,,,,,,,,,,,,,,,,,,,,,,,,,,,,,,,,,,
511,Fernando Poo,40.3949243,-3.7000665,,,,,bar,,,,,,,,,,,,,,,,,,,,,,,,,,,,,,,,,,,,,,,,,,,,,,,,,,,,,,,,,,,,,,,,,,,,,,,,,,,,,,,,,,,,,,,
512,Kubo King,40.4409432,-3.7073044,,40,,Avenida de Filipinas,bar,,,,,,,,,,,,,,,,,,,,,,,,,,,,,,,,,,,,,,,,,,,,,,,,,,,,,,,,,,,,,,,,,,,,,,,,,,,,,,,,,,,,,,,
513,Casa Ángel,40.4843765,-3.3538895,Alcalá de Henares,10,28804.0,Calle de Juan de Soto,bar,,,,,,,,,,,,,,,,,,,,,,,,,,,,,,,,,,,,,,,,,,,,,,,,,,,,,,,,,,,,,,,,,,,,,,,,,,,,,,,,,,,,,,,
514,Bar Churrería San Fernando,40.4283556,-3.5293465,,28,28830.0,Calle de la Presa,bar,,,,,,,,,,,,,,,,,,,,,,,,,,,,,,,,,,,,,,,,,,,,,,,,,,,,,,,,,,,,,,,,,,,,,,,,,,,,,,,,,,,,,,,
515,Bulevar,40.4322128,-3.6745577,Madrid,,28039.0,Calle de Berruguete,bar,,,,,,,,,,,,,,,,,,,,,,,,,,,,,,,,,,,,,,,,,,,,,,,,,,,,,"Magizan Bulevar, SL",,,,,,,,,,,,,,,,,,,,,,,,,,,,,,,,,,
516,Cofradía M.A.D,40.4325385,-3.6746592,,,,,bar,,,,,,,,,,,,,,,,,,,,,,,,,,,,,,,,,,,,,,,,,,,,,,,,,,,,,,,,,,,,,,,,,,,,,,,,,,,,,,,,,,,,,,,
517,El Duende,40.4329886,-3.6747868,,,,,bar,,,,,,,,,,,,,,,,,,,,,,,,,,,,,,,,,,,,,,,,,,,,,,,,,,,,,,,,,,,,,,,,,,,,,,,,,,,,,,,,,,,,,,,
518,El Rincón,40.4272509,-3.5383934999999997,,,,,bar,,,,,,,,,,,,,,,,,,,,,,,,,,,,,,,,,,,,,,,,,,,,,,,,,,,,,,,,,,,,,,,,,,,,,,,,,,,,,,,,,,,,,,,
519,Bordillo,40.4272924,-3.5379415,,,,,bar,,,,,,,,,,,,,,,,,,,,,,,,,,,,,,,,,,,,,,,,,,,,,,,,,,,,,,,,,,,,,,,,,,,,,,,,,,,,,,,,,,,,,,,
520,La Mejor Flor,40.4288217,-3.7046677,Madrid,22,28004.0,Calle de Manuela Malasaña,bar,,+34 912 82 09 70,,,https://www.facebook.com/lamejorflorbar/info?tab=overview,,,,,,,,,,,,,,,,,,,,,,,,,,,,,,,,,,,,,,,,,,,,,,,,,,,,,,,,,,,,,,,,,,,,,,,,,,,,,,,,,,
521,Irreale,40.4288108,-3.7045946,Madrid,20,28004.0,Calle de Manuela Malasaña,bar,,+34 917 52 83 74,,,https://es-es.facebook.com/irrealemadrid,,Q57446346,,,Ave Fenix,,,,,,,,,,,,,,,,,,,,,,,,,,,,,,,,,,,,,,,,,,,,,,,,,,,,,,,,,,,,,,,,,,,,,,,,,,,,,
522,Bar Amor,40.4288361,-3.7047263,Madrid,22,28004.0,Calle de Manuela Malasaña,bar,,+34 915 94 48 29,,,,,,,,,,,,,,,,,,,,,,,,,,,,,,,,,,,,,,,,,,,,,,,,,,,,,,,,,,,,,,,,,,,,,,,,,,,,,,,,,,,,,
523,,40.4195617,-3.6204087,,,,,bar,,,,,,,,,,,,,,,,,,,,,,,,,,,,,,,,,,,,,,,,,,,,,,,,,,,,,,,,,,,,,,,,,,,,,,,,,,,,,,,,,,,,,,,
524,La Casa del Abuelo,40.4251923,-3.6811941,,,,,bar,,,,,,,,,,,,,survey,,,,,,,,,,,,,,,,,,,,,,,,,,,,,,,,,,,,,,,,,,,,,,,,,,,,,,,,,,,,,,,,,,,,,,,,,,
525,Bar Mariaga,40.4097262,-3.6466832,,,,,bar,,,,,,,,,,,,,,,,,,,,,,,,,,,,,,,,,,,,,,,,,,,,,,,,,,,,,,,,,,,,,,,,,,,,,,,,,,,,,,,,,,,,,,,
526,Bar Ibiza,40.3960878,-3.7624732,Madrid,69,28024.0,Calle de Escalona,bar,,,,,,,,,,,,,,,,,,,,,,,,,,,,,,,,,,,,,,,,,,,,,,,Bar Ibiza,,,,,,,,,,,,,,,,,,,,,,,,,,,,,,,,,,,,,,,,
527,+ K Copas,40.4205066,-3.6988299,Madrid,13,28004.0,Calle de las Infantas,bar,,,,,,,,,http://maskcopas.com/,Pizzería Casavostra,,,,,,,,,,,,,,,,,,,,,,,,,,,,,,,,,,,,,,,,,,,,,,,,,,,,,,,,,,,,,,,,,,,,,,,,,,,,,
528,Picnic,40.4242727,-3.7062421,Madrid,1,28004.0,Calle de Minas,bar,barpicnic@gmail.com,+34 915 21 08 89,,,https://es-es.facebook.com/picnicmadrid,,,,,,,,,,,,,,,,,,,,,,,,,,,,,,,,,,,,,,,,,,,,,,,,,,,,,,,,,,,,,,,,,,,,,,,,,,,,,,,,,,
529,Tótem,40.4243541,-3.7071179,Madrid,40,28004.0,Calle del Pez,bar,,,,no,https://es-la.facebook.com/TOTEMPEZ/,+34 914 85 80 31,,,,Transsiberian,,,,,,,,,,,,,,,El Pez Eléctrico,,,,,Escalon,,,,,,,,,,,,,,,,,,,,,,,,Grama Arts Club,,,,,,,,,,,,,,,,,,,,,,,,,,,,,,,,,
530,1862 Dry Bar,40.4241697,-3.706574,Madrid,27,28004.0,Calle del Pez,bar,,+34 609 53 11 51,,,https://es-es.facebook.com/1862DryBar,,,,,,Mo-Th 15:30-02:00, Fr-Sa 15:30-02:30, Su 15:30-22:30,,,,,,,,,,,,,,,,,,,,,,,,,,,,,,,,,,,,,,,,,,,,,,,,,,,,,,,,,,,,,,,,,,,,,,,,,,
531,Lozano,40.4262872,-3.5318661000000002,,2,28830.0,Calle Virgen del Templo,bar,,,,,,,,,,,,,,,,,,,,,,,,,,,,,Las Alitas,,,,,,,,,,,,,,,,,,,,,,,,,,,,,,,,,,,,,,,,,,,,,,,,,,,,,,,,,,
532,Cervecería Bremen,40.3819233,-3.7650042,Madrid,6,28044.0,Calle Sanguiño,bar,,,,,,,,,,,,,,,,,,,,,,,,,,,,,,,,,,,,,,,,,,,,,,,,,,,,,,,,,,,,,,,,,,,,,,,,,,,,,,,,,,,,,,,
533,Baretu,40.4259668,-3.6743929,Madrid,101,28006.0,Calle de Hermosilla,bar,,,,,,,,,,,,,,,,,,,,,,,,,,,,,,,,,,,,,,,,,,,,,,,,,,,,,,,,,,,,,,,,,,,,,,,,,,,,,,,,,,,,,,,
534,Casa Picote,40.426074,-3.6761618,Madrid,91,28001.0,Calle de Hermosilla,bar,,,,no,,,,,,Bar Torrijos,,,,,,,,,,,,,,,,,,,,,,,,,,,,,,,,,,,,,,,,,,,,,,,,,,,,,,,,,,,,,,,,,,,,,,,,,,,,,
535,Strong,40.418605,-3.7075016,Madrid,7,28013.0,Calle de los Trujillos,bar,,34915415415,http://www.strong-center.com/Strong.html,,,,,,,,Mo-Fr 23:30-06:00, Sa-Su 23:30-06:00,,,,,,,,,,,,,,,,,,,,,,,,,,,,,,,,,,,,,,,,,,,,primary,,,,,,,,,,,,,,,,,,,,,,,,,,,,,,,
536,La Canela,40.4179885,-3.7074756,Madrid,19,28013.0,Calle de las Hileras,bar,,+34 915 59 55 32,,,https://es-es.facebook.com/pages/La-Canela-Caf%C3%A9-Bar/135455503177789,,,,,,Mo-Su 16:00-02:00,,,,,,,,,,,,,,,,,,,,,,,,,,,,,,,,,,,,,,,,,,,,,,,,,,,,,,,,,,,,,,,,,,,,,,,,,,,,
537,La Coquette,40.4176751,-3.7076269,Madrid,14,28013.0,Calle de las Hileras,bar,discosyunke@gmail.com,+34 915 210 915,,,,,,,,,,,,,,,,,,,,,,,,,,,,,,,,,,,,,,,,,,,,,,,,,,,,,,,,,,,,,,,,,,,,,,,,,,,,,,,,,,,,,
538,Café Iruña,40.4172132,-3.7080127,Madrid,8,28013.0,Calle de las Hileras,bar,,,,,,,,,,,,,,,,,,,,,,,,,,,,,,,,,,,,,,,,,,,,,,,,,,,,,,,,,,,,,,,,,,,,,,,,,,,,,,,,,,,,,,,
539,Cazador,40.4249561,-3.7066635,Madrid,7,28004.0,Calle de Pozas,bar,,,,,https://es-es.facebook.com/cazadorbar,,,,,,Mo-Th 17:00-02:00, Fr-Sa 17:00-02:30, Su 12:00-01:00,,,,,,,,,,,,,,,,,,,,,,,,,,,,,,,,,,,,,,,,,,,,,,,,,,,,,,,,,,,,,,,,,,,,,,,,,,
540,Ferrero,40.424559,-3.7066589,Madrid,3,28004.0,Calle de Pozas,bar,,,,no,,,,,,,,,,,,,,,,,,,,,,,,,,,,,,,,,,,,,,,,,,,,,,,,,,,,,,,,,,,,,,,,,,,,,,,,,,,,,,,,,,,
541,Casa Camacho,40.4256268,-3.7038123,Madrid,4,28004.0,Calle de San Andrés,bar,,,,,,,,,,,,,,,,,,,,,,,,,,,,,,,,,,,,,,,,,,,,,,,,,,,,,,,,,,,,,,,,,,,,,,,,,,,,,,,,,,,,,,,
542,Bodegas Lo Máximo,40.4103086,-3.7017065000000002,Madrid,6,28012.0,Calle de San Carlos,bar,,,,,,,,,,,,,,,,,,,,,,,,,,,,,,,,,,,,,,,,,,,,,,,,,,,,,,,,,,,,,,,,,,,,,,,,,,,,,,,,,,,,,,,
543,Miguel Ángel,40.4571327,-3.4554521,,,,,bar,,,,,,,,,,,,,survey,,,,,,,,,,,,,,,,,,,,,,,,,,,,,,,,,,,,,,,,,,,,,,,,,,,,,,,,,,,,,,,,,,,,,,,,,,
544,Next Level,40.4211294,-3.7054495,Madrid,4,28004.0,Calle de los Tudescos,bar,,,,limited,,,,,,Mind The Gap,,,,,,,,,,,,,,,Changes,,,,,Sin escalones (interior desconocido). Puerta de 87 cm,,,,,,,,,,,,,,,,,,,,,,,,2 Cero 5,,,,,,,,,,,,,,,,,,,,,,,,,,,,,,,,,
545,Taberna La Mina,40.4348255,-3.7017445,Madrid,8,28010.0,Calle General Álvarez de Castro,bar,,,,,,,,,,,Tu-Su 11:00-01:30,,,tapas,,,,,,,,,,,,,,,,,,,,,,,,,,,,,,,,,,,,,,,,,,,,,,,,,,,,,,,,,,,,,,,,,,,,,,,,,
546,Fausto's,40.4211533,-3.5294981,,4,28830.0,Plaza de Ondarreta,bar,,,,,,34916743194,,,,,,,,spanish,,,,,ES,,,,,,,,,,,,,,,,,,,,,,,,,,,,,,,,,,,,,,,,,,,,,,,,,,,,,,,,,,,,,,,,,,,,
547,La Parrilla del Mejillón,40.4209583,-3.5295831,,16,28830.0,Plaza de Ondarreta,bar,,,,,,34693704745,,,,,,,,,,,,,ES,,,,,,,,,,,,,,,,,,,,,,,,,,,,,,,,,,,,,,,,,,,,,,,,,,,,,,,,,,,,,,,,,,,,
548,Montserrat,40.4624346,-3.4650145,,,,,bar,,,,,,,,,,,,,survey,,,,,,,,,,,,,,,,,,,,,,,,,,,,,,,,,,,,,,,,,,,,,,,,,,,,,,,,,,,,,,,,,,,,,,,,,,
549,El Gato Canalla,40.4247563,-3.7073338,Madrid,46,28015.0,Calle de San Bernardo,bar,,,,no,,+34 913 611 401,,,http://www.elgatocanallamadrid.com/,Alejandro RJ,,,,,,,,,,,,,,,,,,,,escalon >7cms,,,,,,,,,,,,,,,,,,,,,,,,,,,,,,,,,,,,,,,,,,,,,,,,,,,,,,,,,
550,La Pasa,40.4271325,-3.7065782,Madrid,73,28015.0,Calle de San Bernardo,bar,LAPASAMALANA@GMAIL.COM,+34 910 81 29 79,,,https://es-es.facebook.com/LaPasaBar,,,,,,,,,,,,,,,,,,,,,,,,,,,,,,,,,,,,,,,,,,,,,,,,,,,,,,,,,,,,,,,,,,,,,,,,,,,,,,,,,,
551,La Panoya,40.4164558,-3.7077761000000002,Madrid,5,28013.0,Calle de Bordadores,bar,,,,,,,,,,,,,,,,,,,,,,,,,,,,,,,,,,,,,,,,,,,,,,,,,,,,,,,,,,,,,,,,,,,,,,,,,,,,,,,,,,,,,,,
552,Lion,40.4165263,-3.7075762,Madrid,4,28013.0,Calle de Bordadores,bar,,,,,,,,,,,,,,,,,,,,,,,,,,,,,,,,,,,,,,,,,,,,,,,,,,,,,,,,,,,,,,,,,,,,,,,,,,,,,,,,,,,,,,,
553,Plaza Mayor,40.4151284,-3.7063631,Madrid,4,28012.0,Calle de Gerona,bar,,,,,,,,,,,,,,,,,,,,,,,,,,,,,,,,,,,,,,,,,,,,,,,,,,,,,,,,,,,,,,,,,,,,,,,,,,,,,,,,,,,,,,,
554,Casa Baranda,40.4237733,-3.7016495,Madrid,11,28004.0,Calle de Colón,bar,,,,limited,,,,,,La Huida,,,,,,,,,ES,,,,,,,,,,,,,,,,,,,,,,,,,,,,,,,,,,,,,,,,,,,,,,,,,,,,,,,,,,,,,,,,,,,,
555,Bar Juvi,40.3916381,-3.7104401,Madrid,6,28019.0,Calle del Marques de Jura Real,bar,,,,,,,,,,,,,,,,,,,,,,,,,,,,,,,,,,,,,,,,,,,,,,,Bar Juvi,,,,,,,,,,,,,,,,,,,,,,,,,,,,,,,,,,,,,,,,
556,Vacaciones,40.4253033,-3.7035583,Madrid,15,28004.0,Calle del Espíritu Santo,bar,info@vacacionesbar.com,+34 911 30 41 25,http://www.vacacionesbar.com/,,,,,,,,,,,,,,,,,,,,,,,,,,,,,,,,,,,,,,,,,,,,,,,,,,,,,,,,,,,,,,,,,,,,,,,,,,,,,,,,,,,,
557,Nassau Madrid,40.4376823,-3.6809517,Madrid,37,28006.0,Calle de María de Molina,bar,,+34 696 257 763,http://www.nassaumadrid.com/,,,,,,,,,,,,,,,,,,,,,,,,,,,,,,,,,,,,,,,,,,,,,,,,,,,,,,,,,,,,,,,,,,,,,,,,,,,,,,,,,,,,
558,El Perro de la Parte de Atrás del Coche,40.4222647,-3.7039415,Madrid,15,28004.0,Calle de la Puebla,bar,,+34 618 78 30 54,,,https://es-la.facebook.com/elperroclub,,,,,,,,,,,,,,,,,,,,,,,,,,,,,,,,,,,,,,,,,,,,,,,,,,,,,,,,,,,,,,,,,,,,,,,,,,,,,,,,,,
559,El Cangrejero,40.4271764,-3.7095911,Madrid,25,28015.0,Calle de Amaniel,bar,,,,,,,Q57446846,,,,,,,,,,,,,,,,,,,,,,,,,,,,,,,,,,,,,,,,,,,,,,,,,,,,,,,,,,,,,,,,,,,,,,,,,,,,,,,,
560,Cervecería Roldán,40.4296555,-3.7079366,Madrid,5,28015.0,Calle de Alberto Aguilera,bar,,,,,,,,,,,,,,,,,,,,,,,,,,,,,,,,,,,,,,,,,,,,,,,,,,,,,,,,,,,,,,,,,,,,,,,,,,,,,,,,,,,,,,,
561,Kaligula's,40.4303321,-3.7114246,Madrid,36,28015.0,Calle de Alberto Aguilera,bar,,,http://grupokaligulas.es,,,,,,,,,,,,,,,,,,,,,,,,,,,,,,,,,,,,,,,,,,,,,,,,,,,,,,,,,,,,,,,,,,,,,,,,,,,,,,,,,,,,
562,Bar Armando,40.4358906,-3.7144082,Madrid,53,28015.0,Calle de Andrés Mellado,bar,,,,,,,,,,,,,,,,,,,,,,,,,,,,,,,,,,,,,,,,,,,,,,,,,,,,,,,,,,,,,,,,,,,,,,,,,,,,,,,,,,,,,,,
563,La Taberna de Nacho,40.4322526,-3.7143842,Madrid,18,28015.0,Calle de Andrés Mellado,bar,,,,,,,,,,,,,,,,,,,,,,,,,,,,,,,,,,,,,,,,,,,,,,,,,,,,,,,,,,,,,,,,,,,,,,,,,,,,,,,,,,,,,,,
564,Kramer,40.4271431,-3.7084665,Madrid,1,28015.0,Plaza de las Comendadoras,bar,,+34 639 74 57 24,,,https://www.facebook.com/pages/Kramer/261335687340473,,,,,,,,,,,,,,,,,,,,,,,,,,,,,,,,,,,,,,,,,,,,,,,,,,,,,,,,,,,,,,,,,,,,,,,,,,,,,,,,,,
565,Café Moderno,40.4272999,-3.708479,Madrid,1,28015.0,Plaza de las Comendadoras,bar,info@cafemodernomadrid.com,,http://cafemodernomadrid.com/,,,,,,,,,,,,,,,,,,,,,,,,,,,,,,,,,,,,,,,,,,,,,,,,,,,,,,,,,,,,,,,,,,,,,,,,,,,,,,,,,,,,
566,Bar Iberia,40.4298678,-3.7052902999999997,Madrid,4,28015.0,Glorieta de Ruiz Jiménez,bar,,,,,,,,,,,,,,,,,,,,,,,,,,,,,,,,,,,,,,,,,,,,,,,,,,,,,,,,,,,,,,,,,,,,,,,,,,,,,,,,,,,,,,,
567,Bar Sánchez,40.4317708,-3.7101988,Madrid,26,28015.0,Calle de Rodríguez San Pedro,bar,,,,,,,,,,,,,,regional,,,,,,,,,,,,,,,,,,,,,,,,,,,,,,,,,,,,,,,,,,,,,,,,,,,,,,,,,,,,,,,,,,,,,,,,,
568,Los Chicos,40.433136,-3.7134979,Madrid,33,28015.0,Calle de Guzmán el Bueno,bar,,,,,,,,,,,,,,,,,,,,,,,,,,,,,,,,,,,,,,,,,,,,,,,,,,,,,,,,,,,,,,,,,,,,,,,,,,,,,,,,,,,,,,,
569,Bukavu,40.4352708,-3.7140351,Madrid,71,28015.0,Calle de Fernández de los Ríos,bar,,+34 915 43 81 16,,,https://es-es.facebook.com/BarBukavu,,,,,,,,,,,,,,,,,,,,,,,,,,,,,,,,,,,,,,,,,,,,,,,,,,,,,,,,,,,,,,,,,,,,,,,,,,,,,,,,,,
570,Bar Leiner,40.4290265,-3.7092369,Madrid,42,28015.0,Calle del Conde Duque,bar,,+34 687 44 47 75,,,https://es-es.facebook.com/pages/Bar-Leiner-Madrid/352350908231147,,,,,,,,,,,,,,,,,,,,,,,,,,,,,,,,,,,,,,,,,,,,,,,,,,,,,,,,,,,,,,,,,,,,,,,,,,,,,,,,,,
571,Garden,40.4312897,-3.7090267,Madrid,15,28015.0,Calle de Vallehermoso,bar,,,,,,,,,,,,,,,,,,,,,,,,,,,,,,,,,,,,,,,,,,,,,,,,,,,,,,,,,,,,,,,,,,,,,,,,,,,,,,,,,,,,,,,
572,El Amor Hermoso,40.4267858,-3.708179,Madrid,,28015.0,Calle de la Palma,bar,,,,,https://es-es.facebook.com/elamorhermosobar/,+34 606 21 64 82,,,,Bar José,,,,,,,,,,,,,,,,,,,,,,,,,,,,,,,,,,,,,,,,,,,,,,,,,,,,,,,,,,,,,,,,,,,,,,,,,,,,,
573,La Carmencita,40.4260905,-3.7074034,Madrid,51,28015.0,Calle de San Vicente Ferrer,bar,carmencita@carmencitabar.com,+34 915 23 80 73,http://www.carmencitabar.com/,,,,,,,,,,,,,,,,,,,,,,,,,,,,,,,,,,,,,,,,,,,,,,,,,,,,,,,,,,,,,,,,,,,,,,,,,,,,,,,,,,,,
574,La Austriaca,40.4213895,-3.7014339,Madrid,3,28004.0,Calle de San Onofre,bar,,,,,,,,,,,,,,,,,,,ES,,,,,,,,,,,,,,,,,,,,,,,,,,,,,,,,,,,,,,,,,,,,,,,,,,,,,,,,,,,,,,,,,,,,
575,Casa Martin,40.4199078,-3.679105,Madrid,17,28009.0,Avenida de Menéndez Pelayo,bar,,,,,,,,,,,,,,,,,,,ES,,,,,,,,,,,,,,,,,,Martin’s House,,,,,,,,,,,,,,,,,,,,,,,,,,,,,,,,,,,,,,,,,,,,,,,,,,
576,B de J,40.4201263,-3.6791962,Madrid,15,28009.0,Avenida de Menéndez Pelayo,bar,,,,,,,,,,,,,,,,,,,ES,,,,,,,,,,,,,,,,,,,,,,,,,,,,,,,,,,,,,,,,,,,,,,,,,,,,,,,,,,,,,,,,,,,,
577,Bora Bora,40.4257426,-3.7134716,Madrid,5,28008.0,Calle de Ventura Rodríguez,bar,,+34 915 420 467,http://www.borabora-polinessianbar.com/,,,,,,,,,,,,,,,,,,,,,,,,,,,,,,,,,,,,,,,,,,,,,,,,,,,,,,,,,,,,,,,,,,,,,,,,,,,,,,,,,,,,
578,Bar Galleta,40.422695,-3.7036263,Madrid,31,28004.0,Corredera Baja de San Pablo,bar,,,,,,,Q57446009,,,Mayke II,,,,regional,,,,,ES,,,,,,,,,,,,,,,,,,,,,,,,,,,,,,,,,,,,,,,,,,,,,,,,,,,,,,,,,,,,,,,,,,,,
579,Estación Malasaña,40.4235992,-3.7050937,Madrid,16,28004.0,Calle del Pez,bar,,,,,,,,,http://estacionmalasana.es/,The Passenger,,,,,,,,,,,,,,,,,,,,,,,,,,,,,,,,,,,,,,,,,,,,,,,,,,,,,,,,,,,,,,,,,,,,,,,,,,,,,
580,Bar Selva,40.4235515,-3.7086468999999997,Madrid,7,28015.0,Plaza de los Mostenses,bar,,,,no,,,,,,,,,,,,,,,,,,,,,,,,,,Escalones,,,,,,,,,,,,,,,,,,,,,,,,,,,,,,,,,,,,,,,,,,,,,,,,,,,,,,,,,
581,Fotomatón,40.4244549,-3.709445,Madrid,2,28015.0,Plaza del Conde de Toreno,bar,,,,,https://es-es.facebook.com/fotomatonbarconciertos,,,,,,,,,,,,,,,,,,,,,,,,,,,,,,,,,,,,,,,,,,,,,,,,,,,,,,,,,,,,,,,,,,,,,,,,,,,,,,,,,,
582,El Jardín Secreto,40.4258218,-3.7114898,Madrid,2,28015.0,Calle del Conde Duque,bar,,,http://www.eljardinsecretomadrid.com/main/,limited,,,,,,,,,,,,,,,,,,,,,,,,,,,,,,,,,,,,,,,,,,,,,,,,,,,,,,,,,,,,,,,,,,,,,,,,,,,,,,,,,,,
583,Alevosía,40.4232589,-3.7066651,Madrid,8,28004.0,Calle de Andrés Borrego,bar,,,,,,,,,,Destino,,,,,,,,,,,,,,,,,,,,,,,,,,,,,,,,,,,,,,,,,,,,,,,,,,,,,,,,,,,,,,,,,,,,,,,,,,,,,
584,Varsovia,40.4288286,-3.7034042,Madrid,33,28004.0,Calle de San Andrés,bar,,,,,https://www.facebook.com/Varsovia-bar-cocktail-1589485831363554/,,,,,Café El Parnasillo,,,,,,,,,,,,,,,,,,,,,,,,,,,,,,,,,,,,,,,,,,,,,,,,,,,,,,,,,,,,,,,,,,,,,,,,,,,,,
585,Denay,40.3951857,-3.706852,,,,,bar,,,,,,,,,,La Trola,19:00-3:00,,,,,,,,,,,,,,,,,,,,,,,,,,,,,,,,,,,,,,,,,,,,,,,,,,,,,,,,,,,,,,,,,,,,,,,,,,,,
586,Estupenda,40.4225962,-3.7046498,Madrid,14,28004.0,Calle de San Roque,bar,,+34 605 96 24 05,,limited,https://www.facebook.com/estupendacafebar/,,,,,El Fabuloso Coconut,,,,,,,,,,,,,,,,,,,,"Dos escalones, uno de 16cm y otro de 8cm",,,,,,,,,,,,,,,,,,,,,,,,,,,,,,,,,,,,,,,,,,,,,,,,,,,,,,,,,
587,Gourmet,40.406098,-3.7078743,,,,,bar,,,,,,,,,,Paco y Miguel,,,,,,,,,,,,,,,,,,,,,,,,,,,,,,,,,,,,,,,,,,,,,,,,,,,,,,,,,,,,,,,,,,,,,,,,,,,,,
588,Farmacia de Guardia,40.4233876,-3.7027566,Madrid,49,28004.0,Corredera Baja de San Pablo,bar,,,,,,,,,,,,,,,,,,,ES,,,,,,,,,,,,,,,,,,,,,,,,,,,,,,,,,,,,,,,,,,,,,,,,,,,,,,,,,,,,,,,,,,,,
589,Sidi,40.4237869,-3.7020738,Madrid,15,28004.0,Calle de Colón,bar,,,,limited,,,,,,,,,,,,,,,ES,,,,,,,,,,,,,,,,,,,,,,,,,,,,,,,,,,,,,,,,,,,,,,,,,,,,,,,,,,,,,,,,,,,,
590,Gorila,40.4232668,-3.7028673,Madrid,47,28004.0,Corredera Baja de San Pablo,bar,gorilacafemadrid@gmail.com,+34 910 07 08 88,,,https://es-es.facebook.com/Gorilamadrid,,Q57446406,,,,,,,,,,,,,,,,,,,,,,,,,,,,,,,,,,,,,,,,,,,,,,,,,,,,,,,,,,,,,,,,,,,,,,,,,,,,,,,,
591,Tanka's,40.4206008,-3.707832,Madrid,4,28013.0,Calle de Silva,bar,,,,,,,,,,,,,,,,,,,,,,,,,,,,,,,,,,,,,,,,,,,,,,,,,,,,,,,,,,,,,,,,,,,,,,,,,,,,,,,,,,,,,,,
592,Viña,40.419116,-3.7070473,Madrid,7,28013.0,Calle de las Navas de Tolosa,bar,,,,,,,,,,,,,,,,,,,,,,,,,,,,,,,,,,,,,,,,,,,,,,,,,,,,,,,,,,,,,,,,,,,,,,,,,,,,,,,,,,,,,,,
593,La Galería,40.4189491,-3.7082735,Madrid,9,28013.0,Calle Costanilla de los Ángeles,bar,,,,,,,,,,,,,,,,,,,,,,,,,,,,,,,,,,,,,,,,,,,,,,,,,,,,,,,,,,,,,,,,,,,,,,,,,,,,,,,,,,,,,,,
594,La Cervecería Deportiva,40.4189322,-3.7081204,Madrid,12,28013.0,Calle Costanilla de los Ángeles,bar,,,,,,,,,,,,,,,,,,,,,,,,,,,,,,,,,,,,,,,,,,,,,,,,,,,,,,,,,,,,,,,,,,,,,,,,,,,,,,,,,,,,,,,
595,Sambao,40.4173077,-3.7087212,Madrid,9,28013.0,Calle de las Fuentes,bar,,,,,,,,,,,,,,,,,,,,,,,,,,,,,,,,,,,,,,,,,,,,,,,,,,,,,,,,,,,,,,,,,,,,,,,,,,,,,,,,,,,,,,,
596,Plaza Menor,40.4141739,-3.7085488,Madrid,3,28005.0,Calle Gómez de Mora,bar,,,,,,,,,,,,,,,,,,,,,,,,,,,,,,,,,,,,,,,,,,,,,,,,,,,,,,,,,,,,,,,,,,,,,,,,,,,,,,,,,,,,,,,
597,El Anciano Rey de los Vinos,40.4154499,-3.7132643,Madrid,19,28013.0,Calle de Bailén,bar,,+34 91 559 53 32,http://www.elancianoreydelosvinos.es/,,,,,,,,,,,,,,,,,,,,,,,,,,,,,,,,,,,,,,,,,,,,,,,,,,,,,,,,,,,,,,,,,,,,,,,,,,,,,,,,,,,,
598,María Pandora,40.4124908,-3.7145144,Madrid,1,28005.0,Plaza Gabriel Miró,bar,,+34 913 64 00 39,https://www.mariapandora.com/,,,,,,,,,,,,,,,,,,,,,,,,,,,,,,,,,,,,,,,,,,,,,,,,,,,,,,,,,,,,,,,,,,,,,,,,,,,,,,,,,,,,
599,Oss I,40.4072207,-3.7039201,,,,,bar,,,,,,,,,,,,,,,,,,,,,,,,,,,,,,,,,,,,,,,,,,,,,,,,,,,,,,,,,,,,,,,,,,,,,,,,,,,,,,,,,,,,,,,
600,De Olvido,40.3083288,-3.7312569,,,,,bar,,,,,,,,,,,,,,,,,,,,,,,,,,,,,,,,,,,,,,,,,,,,,,,,,,,,,,,,,,,,,,,,,,,,,,,,,,,,,,,,,,,,,,,
601,Bodegas Rivas,40.4266688,-3.7076523,Madrid,61,28015.0,Calle de la Palma,bar,,,,,,,,,,,,,,,,,,,,,,,,,,,,,,,,,,,,,,,,,,,,,,,,,,,,,,,,,,,,,,,,,,,,,,,,,,,,,,,,,,,,,,,
602,Café La Palma,40.4267664,-3.7079906,Madrid,62,28015.0,Calle de la Palma,bar,cafelapalma@cafelapalma.com,+34 91 522 50 31,http://www.cafelapalma.com/,,,,,,,,,,,,,,,,,,,,,,,,,,,,,,,,,,,,,,,,,,,,,,,,,,,,,,,,,,,,,,,,,,,,,,,,,,,,,,,,,,,,
603,La Palmera,40.4267214,-3.7081798,Madrid,67,28015.0,Calle de la Palma,bar,,,,,,,,,,,,,,,,,,,,,,,,,,,,,,,,,,,,,,,,,,,,,,,,,,,,,,,,,,,,,,,,,,,,,,,,,,,,,,,,,,,,,,,
604,La Pastelería Eventos,40.4267347,-3.7083206,Madrid,69,28015.0,Calle de la Palma,bar,,,http://www.lapasteeventos.com/,,,,,,,,,,,,,,,,,,,,,,,,,,,,,,,,,,,,,,,,,,,,,,,,,,,,,,,,,,,,,,,,,,,,,,,,,,,,,,,,,,,,
605,Vian,40.4240264,-3.7053877,Madrid,2,28004.0,Calle del Marqués de Santa Ana,bar,,,,,https://es-es.facebook.com/laparalelabar/,,,,,Tiovivo,,,,,,,,,,,,,,,La Paralela,,,,,,,,,,,,,,,,,,,,,,,,,,,,,,,,,,,,,,,,,,,,,,,,,,,,,,,,,,,,,,
606,La Milana Bonita,40.4241741,-3.7053081,Madrid,7,28004.0,Calle del Marqués de Santa Ana,bar,,,,,,,,,,,,,,,,,,,,,,,,,,,,,,,,,,,,,,,,,,,,,,,,,,,,,,,,,,,,,,,,,,,,,,,,,,,,,,,,,,,,,,,
607,Punto Sur,40.425203,-3.7037459999999998,Madrid,32,28004.0,Calle del Marqués de Santa Ana,bar,,,,,,,,,,El Último,,,,,,,,,,,,,,,,,,,,,,,,,,,,,,,,,,,,,,,,,,,,,,,,,,,,,,,,,,,,,,,,,,,,,,,,,,,,,
608,El Rincón,40.4254398,-3.703586,Madrid,26,28004.0,Calle del Espiritu Santo,bar,,,,,,,,,,,,,,,,,,,,,,,,,,,,,,,,,,,,,,,,,,,,,,,,,,,,,,,,,,,,,,,,,,,,,,,,,,,,,,,,,,,,,,,
609,El 2D,40.4269172,-3.7035901,Madrid,18,28004.0,Calle de San Andrés,bar,,,,no,,,,,,,,,,,,,,,,,,,,,,,,,,Escalón alto,,,,,,,,,,,,,,,,,,,,,,,,,,,,,,,,,,,,,,,,,,,,,,,,,,,,,,,,,
610,El 23,40.4871076,-3.7015592,Madrid,23,28034.0,Calle de Alfredo Marqurie,bar,,,,,,,,,,,,,,,,,,,,,,,,,,,,,,,,,,,,,,,,,,,,,,,,,,,,,,,,,,,,,,,,,,,,,,,,,,,,,,,,,,,,,,,
611,Estocolmo,40.4268417,-3.7087489,Madrid,72,28015.0,Calle de la Palma,bar,,,,,https://es-la.facebook.com/Estocolmo.bar,,,,,,,,,,,,,,,,,,,,,,,,,,,,,,,,,,,,,,,,,,,,,,,,,,,,,,,,,,,,,,,,,,,,,,,,,,,,,,,,,,
612,La Caracola del Norte,40.4268365,-3.7086952,Madrid,70,28015.0,Calle de la Palma,bar,,,,,https://www.facebook.com/La-Caracola-del-Norte-1352561858148381/?ref=page_internal,,,,,,,,,,,,,,,,,,,,,,,,,,,,,,,,,,,,,,,,,,,,,,,,,,,,,,,,,,,,,,,,,,,,,,,,,,,,,,,,,,
